Id,City,Country,Latitude,Longitude,Time,Description,Max Temp,Humidity,Wind Speed,Cloudiness,Rain,Snow
0,Garoowe,SO,8.4054,48.4845,2021-04-17 21:42:41,clear sky,74.7,79,12.19,7,0,0
1,Vendas Novas,PT,38.6771,-8.4579,2021-04-17 21:42:41,clear sky,62.6,59,6.91,0,0,0
2,Butaritari,KI,3.0707,172.7902,2021-04-17 21:42:42,light rain,81.88,76,5.14,100,0,0
3,Makakilo City,US,21.3469,-158.0858,2021-04-17 21:46:42,light rain,80.6,54,8.05,90,0,0
4,Cap Malheureux,MU,-19.9842,57.6142,2021-04-17 21:47:14,light rain,78.01,87,6.76,35,0,0
5,Katsuura,JP,35.1333,140.3,2021-04-17 21:42:43,overcast clouds,61.0,65,11.01,96,0,0
6,Puerto Ayora,EC,-0.7393,-90.3518,2021-04-17 21:47:15,light rain,80.01,94,4.61,90,0,0
7,Yellowknife,CA,62.456,-114.3525,2021-04-17 21:45:09,light snow,37.0,60,6.91,75,0,0
8,Khatanga,RU,71.9667,102.5,2021-04-17 21:47:16,overcast clouds,-0.83,96,11.12,100,0,0
9,Jamestown,US,42.097,-79.2353,2021-04-17 21:38:24,overcast clouds,46.99,70,9.22,90,0,0
10,Beringovskiy,RU,63.05,179.3167,2021-04-17 21:40:36,light snow,32.94,98,13.87,100,0,0
11,Juba,SS,4.8517,31.5825,2021-04-17 21:42:45,overcast clouds,77.65,60,3.02,97,0,0
12,Kavieng,PG,-2.5744,150.7967,2021-04-17 21:42:45,broken clouds,82.58,76,11.74,82,0,0
13,Rikitea,PF,-23.1203,-134.9692,2021-04-17 21:39:39,broken clouds,77.38,68,7.81,82,0,0
14,Ushuaia,AR,-54.8,-68.3,2021-04-17 21:41:33,broken clouds,55.4,50,12.66,75,0,0
15,Khani,GE,41.9563,42.9566,2021-04-17 21:42:46,overcast clouds,55.4,82,10.36,90,0,0
16,Lagoa,PT,39.05,-27.9833,2021-04-17 21:42:47,broken clouds,61.25,91,17.65,51,0,0
17,Novy Urengoy,RU,66.0833,76.6333,2021-04-17 21:39:54,overcast clouds,-11.85,100,8.41,85,0,0
18,Longyearbyen,SJ,78.2186,15.6401,2021-04-17 21:45:13,light snow,28.4,80,24.16,90,0,0
19,Sitka,US,57.0531,-135.33,2021-04-17 21:47:18,clear sky,55.4,54,3.44,1,0,0
20,Hithadhoo,MV,-0.6,73.0833,2021-04-17 21:47:19,few clouds,81.95,62,5.64,21,0,0
21,Aktau,KZ,43.65,51.2,2021-04-17 21:47:19,clear sky,50.0,62,6.71,0,0,0
22,Jalu,LY,29.0331,21.5482,2021-04-17 21:47:20,broken clouds,87.39,10,10.22,72,0,0
23,São Filipe,CV,14.8961,-24.4956,2021-04-17 21:47:20,clear sky,73.18,71,13.71,0,0,0
24,Atuona,PF,-9.8,-139.0333,2021-04-17 21:47:21,scattered clouds,80.47,75,19.01,50,0,0
25,Saint Paul Harbor,US,57.79,-152.4072,2021-04-17 21:47:21,overcast clouds,42.8,75,9.22,90,0,0
26,San Policarpo,PH,12.1791,125.5072,2021-04-17 21:47:21,very heavy rain,77.29,92,27.34,100,0,0
27,Vaini,TO,-21.2,-175.2,2021-04-17 21:47:22,few clouds,77.0,73,10.36,20,0,0
28,Ponta do Sol,PT,32.6667,-17.1,2021-04-17 21:47:22,overcast clouds,57.99,88,5.01,98,0,0
29,Hilo,US,19.7297,-155.09,2021-04-17 21:47:23,few clouds,82.4,51,8.05,20,0,0
30,Joshīmath,IN,30.5667,79.5667,2021-04-17 21:47:23,broken clouds,45.79,79,6.17,74,0,0
31,Saint-Pierre,RE,-21.3393,55.4781,2021-04-17 21:47:24,light rain,71.6,94,6.91,90,0,0
32,Luau,AO,-10.7073,22.2247,2021-04-17 21:47:24,broken clouds,63.21,96,4.16,74,0,0
33,California City,US,35.1258,-117.9859,2021-04-17 21:43:51,broken clouds,75.99,15,11.5,75,0,0
34,Albany,US,42.6001,-73.9662,2021-04-17 21:47:25,overcast clouds,51.01,51,3.0,100,0,0
35,Pacific Grove,US,36.6177,-121.9166,2021-04-17 21:47:25,few clouds,57.99,67,11.5,20,0,0
36,Busselton,AU,-33.65,115.3333,2021-04-17 21:47:26,clear sky,48.99,88,8.12,0,0,0
37,Rivadavia,AR,-33.1905,-68.4608,2021-04-17 21:47:26,few clouds,78.8,44,6.91,20,0,0
38,Taltal,CL,-25.4,-70.4833,2021-04-17 21:47:26,few clouds,66.38,74,5.61,24,0,0
39,Gouyave,GD,12.1646,-61.7296,2021-04-17 21:47:27,scattered clouds,84.2,70,20.71,40,0,0
40,Alta Floresta,BR,-9.8756,-56.0861,2021-04-17 21:47:27,overcast clouds,72.25,94,1.52,100,0,0
41,Dikson,RU,73.5069,80.5464,2021-04-17 21:47:28,scattered clouds,-17.18,100,3.42,39,0,0
42,Punta Arenas,CL,-53.15,-70.9167,2021-04-17 21:47:28,broken clouds,51.8,66,9.22,75,0,0
43,Hermanus,ZA,-34.4187,19.2345,2021-04-17 21:47:29,clear sky,66.99,56,6.4,0,0,0
44,East London,ZA,-33.0153,27.9116,2021-04-17 21:47:29,overcast clouds,64.87,69,11.99,100,0,0
45,Shangrao,CN,28.4532,117.9686,2021-04-17 21:47:30,overcast clouds,58.08,81,5.64,100,0,0
46,Kruisfontein,ZA,-34.0033,24.7314,2021-04-17 21:47:30,few clouds,61.36,37,3.42,24,0,0
47,Ust'-Ishim,RU,57.6935,71.1665,2021-04-17 21:47:30,overcast clouds,34.9,85,4.29,100,0,0
48,Hobart,AU,-42.8794,147.3294,2021-04-17 21:46:59,broken clouds,55.99,62,12.66,75,0,0
49,Thompson,CA,55.7435,-97.8558,2021-04-17 21:47:31,overcast clouds,33.8,60,11.5,90,0,0
50,Bluff,NZ,-46.6,168.3333,2021-04-17 21:47:31,overcast clouds,54.0,82,11.01,100,0,0
51,Ipixuna,BR,-1.7625,-48.8043,2021-04-17 21:47:32,broken clouds,78.8,89,3.44,75,0,0
52,Hato Mayor,DO,18.7629,-69.256,2021-04-17 21:47:32,few clouds,86.0,70,11.5,20,0,0
53,Saint-Philippe,RE,-21.3585,55.7679,2021-04-17 21:47:33,light rain,75.2,94,6.91,90,0,0
54,Port Alfred,ZA,-33.5906,26.891,2021-04-17 21:47:33,scattered clouds,65.14,67,13.35,41,0,0
55,Flinders,AU,-34.5833,150.8552,2021-04-17 21:47:34,few clouds,55.0,88,1.01,12,0,0
56,Mataura,NZ,-46.1927,168.8643,2021-04-17 21:47:34,overcast clouds,54.0,82,11.01,100,0,0
57,Payson,US,40.0444,-111.7321,2021-04-17 21:47:34,few clouds,54.0,35,11.5,20,0,0
58,Acajutla,SV,13.5928,-89.8275,2021-04-17 21:47:35,scattered clouds,93.2,40,3.44,40,0,0
59,Hobyo,SO,5.3505,48.5268,2021-04-17 21:47:35,few clouds,83.07,67,11.7,24,0,0
60,Kapaa,US,22.0752,-159.319,2021-04-17 21:47:36,broken clouds,73.4,68,11.5,75,0,0
61,Havøysund,NO,70.9963,24.6622,2021-04-17 21:47:36,clear sky,37.4,75,12.03,9,0,0
62,Half Moon Bay,US,37.4636,-122.4286,2021-04-17 21:47:37,haze,71.01,82,14.97,75,0,0
63,Warrensburg,US,38.7628,-93.7361,2021-04-17 21:47:37,overcast clouds,52.0,76,3.44,90,0,0
64,Necochea,AR,-38.5473,-58.7368,2021-04-17 21:47:37,moderate rain,71.01,78,1.01,72,0,0
65,Chui,UY,-33.6971,-53.4616,2021-04-17 21:47:38,clear sky,64.09,89,6.42,4,0,0
66,Tilichiki,RU,60.4667,166.1,2021-04-17 21:47:38,overcast clouds,25.18,81,10.45,90,0,0
67,Selma,US,36.5708,-119.6121,2021-04-17 21:47:39,few clouds,78.01,27,3.44,20,0,0
68,Te Anau,NZ,-45.4167,167.7167,2021-04-17 21:47:39,overcast clouds,50.43,94,5.44,100,0,0
69,Zhangjiakou,CN,40.81,114.8794,2021-04-17 21:47:40,clear sky,42.53,28,0.67,0,0,0
70,Phichit,TH,16.25,100.4167,2021-04-17 21:47:40,scattered clouds,78.51,82,3.06,26,0,0
71,Madarounfa,NE,13.3087,7.156,2021-04-17 21:47:40,broken clouds,84.38,8,4.79,75,0,0
72,Fairbanks,US,64.8378,-147.7164,2021-04-17 21:47:41,clear sky,46.4,46,6.91,1,0,0
73,Torbay,CA,47.6666,-52.7314,2021-04-17 21:47:41,overcast clouds,36.0,93,14.97,90,0,0
74,Raudeberg,NO,61.9875,5.1352,2021-04-17 21:47:42,clear sky,42.01,60,7.27,0,0,0
75,Bilibino,RU,68.0546,166.4372,2021-04-17 21:47:42,scattered clouds,15.03,83,3.44,38,0,0
76,Thinadhoo,MV,0.5333,72.9333,2021-04-17 21:47:43,clear sky,82.31,61,5.93,9,0,0
77,Qaanaaq,GL,77.484,-69.3632,2021-04-17 21:47:43,overcast clouds,0.54,91,3.31,100,0,0
78,Waingapu,ID,-9.6567,120.2641,2021-04-17 21:47:43,broken clouds,75.92,85,5.26,71,0,0
79,Tomatlán,MX,19.9333,-105.25,2021-04-17 21:47:44,clear sky,88.38,26,11.21,8,0,0
80,Avarua,CK,-21.2078,-159.775,2021-04-17 21:47:44,few clouds,82.4,74,8.05,11,0,0
81,Jumla,NP,29.2747,82.1838,2021-04-17 21:47:45,scattered clouds,38.53,87,6.51,30,0,0
82,Lázaro Cárdenas,MX,17.9583,-102.2,2021-04-17 21:47:45,clear sky,83.5,48,13.31,1,0,0
83,Brufut,GM,13.3814,-16.7518,2021-04-17 21:47:46,clear sky,75.2,73,11.5,0,0,0
84,Naze,JP,28.3667,129.4833,2021-04-17 21:47:46,scattered clouds,60.8,55,12.66,40,0,0
85,Cockburn Town,TC,21.4612,-71.1419,2021-04-17 21:47:47,clear sky,78.73,81,10.25,0,0,0
86,Grand Gaube,MU,-20.0064,57.6608,2021-04-17 21:47:47,light rain,78.01,87,6.69,31,0,0
87,Zhigansk,RU,66.7697,123.3711,2021-04-17 21:47:48,overcast clouds,13.73,94,8.97,100,0,0
88,Nikolskoye,RU,59.7035,30.7861,2021-04-17 21:47:48,clear sky,46.4,36,11.18,0,0,0
89,Yatou,CN,37.15,122.3833,2021-04-17 21:47:48,clear sky,43.07,58,6.93,0,0,0
90,Upernavik,GL,72.7868,-56.1549,2021-04-17 21:47:49,overcast clouds,8.49,83,6.11,100,0,0
91,Changli,CN,39.7042,119.1506,2021-04-17 21:47:49,clear sky,47.21,24,4.54,0,0,0
92,Tura,IN,25.5198,90.2201,2021-04-17 21:47:50,clear sky,66.24,88,3.44,9,0,0
93,Codrington,AU,-38.2667,141.9667,2021-04-17 21:47:50,broken clouds,52.56,92,7.9,55,0,0
94,Cape Town,ZA,-33.9258,18.4232,2021-04-17 21:46:42,clear sky,66.99,82,4.61,0,0,0
95,Evensk,RU,61.95,159.2333,2021-04-17 21:47:51,overcast clouds,17.89,91,6.29,100,0,0
96,Okha,RU,53.5739,142.9478,2021-04-17 21:47:51,overcast clouds,33.12,99,7.34,100,0,0
97,Tautira,PF,-17.7333,-149.15,2021-04-17 21:47:51,few clouds,87.8,66,12.66,20,0,0
98,Saint Lawrence,MT,36.0553,14.204,2021-04-17 21:47:52,clear sky,59.0,82,4.61,0,0,0
99,Kerema,PG,-7.9631,145.7785,2021-04-17 21:47:52,overcast clouds,78.87,88,4.14,97,0,0
100,Point Pleasant,US,40.0832,-74.0682,2021-04-17 21:44:27,overcast clouds,55.0,54,9.22,90,0,0
101,Iqaluit,CA,63.7506,-68.5145,2021-04-17 21:47:53,few clouds,19.4,63,6.91,20,0,0
102,Aranda de Duero,ES,41.6704,-3.6892,2021-04-17 21:47:53,clear sky,35.76,74,6.6,0,0,0
103,Lumut,MY,4.2323,100.6298,2021-04-17 21:47:54,few clouds,75.2,94,2.93,20,0,0
104,Mar del Plata,AR,-38.0023,-57.5575,2021-04-17 21:47:54,broken clouds,66.99,94,6.91,75,0,0
105,Provideniya,RU,64.3833,-173.3,2021-04-17 21:47:55,overcast clouds,30.24,89,6.6,95,0,0
106,Aljezur,PT,37.3191,-8.8033,2021-04-17 21:47:55,overcast clouds,57.38,84,5.84,93,0,0
107,Cayenne,GF,4.9333,-52.3333,2021-04-17 21:47:56,broken clouds,82.4,69,10.36,75,0,0
108,Barrow,US,71.2906,-156.7887,2021-04-17 21:47:56,clear sky,28.4,80,11.5,1,0,0
109,Faya,SA,18.3851,42.4509,2021-04-17 21:47:56,light rain,60.8,63,5.75,40,0,0
110,Barra de Tecoanapa,MX,16.5167,-98.75,2021-04-17 21:47:57,scattered clouds,84.0,57,14.09,36,0,0
111,Sayyan,YE,15.1718,44.3244,2021-04-17 21:47:57,broken clouds,60.04,32,5.68,76,0,0
112,Collie,AU,-33.3667,116.15,2021-04-17 21:47:58,clear sky,48.99,88,4.36,0,0,0
113,Hualmay,PE,-11.0964,-77.6139,2021-04-17 21:47:58,scattered clouds,71.37,77,11.39,30,0,0
114,Leningradskiy,RU,69.3833,178.4167,2021-04-17 21:47:59,overcast clouds,34.09,84,10.09,95,0,0
115,George Town,MY,5.4112,100.3354,2021-04-17 21:47:53,few clouds,80.6,89,4.61,20,0,0
116,Mahébourg,MU,-20.4081,57.7,2021-04-17 21:46:11,light rain,77.0,88,8.05,75,0,0
117,Bambanglipuro,ID,-7.95,110.2833,2021-04-17 21:47:59,broken clouds,75.02,89,3.58,74,0,0
118,Philadelphia,US,39.9523,-75.1638,2021-04-17 21:43:32,overcast clouds,57.2,41,9.22,90,0,0
119,Farah,AF,32.5,62.5,2021-04-17 21:48:00,few clouds,61.61,26,4.5,11,0,0
120,Kisanga,TZ,-7.4362,37.7034,2021-04-17 21:48:00,light rain,71.65,96,3.13,71,0,0
121,Eyl,SO,7.9803,49.8164,2021-04-17 21:48:01,few clouds,80.85,74,10.31,21,0,0
122,Ostrovnoy,RU,68.0531,39.5131,2021-04-17 21:48:01,overcast clouds,29.7,84,3.33,93,0,0
123,Saint George,US,37.1041,-113.5841,2021-04-17 21:48:02,few clouds,66.99,20,16.11,20,0,0
124,Glendive,US,47.1053,-104.7125,2021-04-17 21:48:02,clear sky,60.01,21,13.8,1,0,0
125,Río Tercero,AR,-32.173,-64.1141,2021-04-17 21:48:03,broken clouds,73.0,68,5.99,67,0,0
126,Bouillante,GP,16.1304,-61.7692,2021-04-17 21:48:03,few clouds,82.4,69,14.97,20,0,0
127,Nanortalik,GL,60.1432,-45.2371,2021-04-17 21:48:04,clear sky,25.41,55,31.03,1,0,0
128,Ancud,CL,-41.8697,-73.8203,2021-04-17 21:48:04,broken clouds,64.4,68,7.05,75,0,0
129,Tuktoyaktuk,CA,69.4541,-133.0374,2021-04-17 21:48:04,broken clouds,28.4,80,6.91,75,0,0
130,Rawson,AR,-43.3002,-65.1023,2021-04-17 21:48:05,overcast clouds,63.41,54,20.02,99,0,0
131,Kastamonu Province,TR,41.5,33.6667,2021-04-17 21:48:05,overcast clouds,48.51,95,3.36,87,0,0
132,Sambava,MG,-14.2667,50.1667,2021-04-17 21:48:05,light rain,75.09,90,4.05,100,0,0
133,Labuhan,ID,-6.8844,112.2051,2021-04-17 21:48:06,broken clouds,76.35,89,5.57,84,0,0
134,Māngrol,IN,21.1167,70.1167,2021-04-17 21:48:06,clear sky,78.57,82,10.96,0,0,0
135,Lavrentiya,RU,65.5833,-171.0,2021-04-17 21:48:07,overcast clouds,31.71,87,10.22,96,0,0
136,Quatre Cocos,MU,-20.2078,57.7625,2021-04-17 21:48:07,broken clouds,78.01,88,8.05,75,0,0
137,San Andrés,CO,12.5847,-81.7006,2021-04-17 21:48:08,overcast clouds,86.0,74,14.97,90,0,0
138,Tuatapere,NZ,-46.1333,167.6833,2021-04-17 21:48:08,overcast clouds,54.0,82,11.01,92,0,0
139,Issenye,TZ,-2.0,34.3333,2021-04-17 21:48:08,broken clouds,62.15,92,3.96,67,0,0
140,Mount Isa,AU,-20.7333,139.5,2021-04-17 21:48:09,clear sky,68.0,37,14.97,1,0,0
141,Hailar,CN,49.2,119.7,2021-04-17 21:48:09,clear sky,26.76,73,7.09,2,0,0
142,Severo-Kuril'sk,RU,50.6789,156.125,2021-04-17 21:48:10,overcast clouds,37.45,67,6.24,100,0,0
143,Tasiilaq,GL,65.6145,-37.6368,2021-04-17 21:48:10,light snow,26.6,86,3.4,75,0,0
144,Mabaruma,GY,8.2,-59.7833,2021-04-17 21:48:10,scattered clouds,77.88,76,5.7,50,0,0
145,Baillif,GP,16.0202,-61.7463,2021-04-17 21:48:11,few clouds,82.4,69,14.97,20,0,0
146,Castro,BR,-24.7911,-50.0119,2021-04-17 21:48:11,broken clouds,59.86,91,2.68,59,0,0
147,Pevek,RU,69.7008,170.3133,2021-04-17 21:48:12,overcast clouds,21.94,93,11.86,89,0,0
148,Fukuechō,JP,32.6881,128.8419,2021-04-17 21:48:12,clear sky,54.34,54,28.25,6,0,0
149,Katangli,RU,51.7102,143.2326,2021-04-17 21:48:12,overcast clouds,34.03,98,2.91,99,0,0
150,Port Elizabeth,ZA,-33.918,25.5701,2021-04-17 21:48:13,scattered clouds,55.4,94,3.44,40,0,0
151,Les Cayes,HT,18.2,-73.75,2021-04-17 21:48:13,clear sky,81.9,75,11.01,1,0,0
152,Gamba,GA,-2.65,10.0,2021-04-17 21:48:14,light rain,77.9,90,6.82,99,0,0
153,Igarka,RU,67.4667,86.5833,2021-04-17 21:48:14,scattered clouds,-18.38,95,9.26,31,0,0
154,Arraial do Cabo,BR,-22.9661,-42.0278,2021-04-17 21:48:15,scattered clouds,75.2,88,13.8,40,0,0
155,Marzuq,YE,14.4,46.4667,2021-04-17 21:48:15,clear sky,69.67,51,6.46,1,0,0
156,Castlemaine,AU,-37.0667,144.2167,2021-04-17 21:48:16,scattered clouds,53.01,52,3.38,34,0,0
157,Maniitsoq,GL,65.4167,-52.9,2021-04-17 21:48:16,overcast clouds,11.7,73,13.8,89,0,0
158,Makkah al Mukarramah,SA,21.4267,39.8261,2021-04-17 21:46:25,few clouds,83.28,37,12.46,21,0,0
159,Ambovombe,MG,-25.1667,46.0833,2021-04-17 21:48:17,broken clouds,65.82,56,11.16,81,0,0
160,Cascavel,BR,-24.9558,-53.4553,2021-04-17 21:48:17,overcast clouds,70.3,60,1.45,99,0,0
161,Mwingi,KE,-0.9344,38.0601,2021-04-17 21:48:18,light rain,66.02,92,5.86,79,0,0
162,Yulara,AU,-25.2406,130.9889,2021-04-17 21:48:18,clear sky,53.6,58,6.91,0,0,0
163,Vilyuysk,RU,63.7553,121.6247,2021-04-17 21:48:19,light snow,11.8,91,13.33,100,0,0
164,Reconquista,AR,-29.15,-59.65,2021-04-17 21:48:19,scattered clouds,72.75,76,7.29,31,0,0
165,Karratha,AU,-20.7377,116.8463,2021-04-17 21:48:19,clear sky,79.79,47,7.65,0,0,0
166,Kaitangata,NZ,-46.2817,169.8464,2021-04-17 21:48:20,overcast clouds,55.99,71,5.68,100,0,0
167,Zhezkazgan,KZ,47.8043,67.7144,2021-04-17 21:48:20,overcast clouds,54.9,42,0.56,98,0,0
168,Rodolfo Sánchez Taboada,MX,31.7167,-116.5667,2021-04-17 21:45:40,clear sky,66.0,71,5.01,0,0,0
169,Katherine,AU,-14.4667,132.2667,2021-04-17 21:48:21,overcast clouds,64.4,55,6.91,94,0,0
170,Scarborough,GB,54.2797,-0.4044,2021-04-17 21:45:11,overcast clouds,41.0,72,4.88,100,0,0
171,Akureyri,IS,65.6835,-18.0878,2021-04-17 21:48:22,overcast clouds,39.2,93,8.05,90,0,0
172,Ribeira Grande,PT,38.5167,-28.7,2021-04-17 21:48:22,scattered clouds,62.31,92,12.55,49,0,0
173,Bredasdorp,ZA,-34.5322,20.0403,2021-04-17 21:48:22,clear sky,48.2,93,2.3,0,0,0
174,Itamaracá,BR,-7.7478,-34.8256,2021-04-17 21:48:23,broken clouds,77.0,78,2.3,75,0,0
175,Oro Valley,US,32.3909,-110.9665,2021-04-17 21:48:23,clear sky,82.99,7,1.99,0,0,0
176,Poum,NC,-20.2333,164.0167,2021-04-17 21:48:24,broken clouds,78.98,73,18.16,56,0,0
177,Blomberg,DE,51.9433,9.0907,2021-04-17 21:48:24,broken clouds,48.2,61,1.14,79,0,0
178,Fortuna,US,40.5982,-124.1573,2021-04-17 21:48:24,few clouds,54.0,87,16.11,20,0,0
179,Kinsale,IE,51.7075,-8.5306,2021-04-17 21:48:25,light rain,48.0,87,8.05,75,0,0
180,Powell River,CA,49.8496,-124.5361,2021-04-17 21:45:10,clear sky,68.0,37,8.05,1,0,0
181,Purranque,CL,-40.9167,-73.1667,2021-04-17 21:48:25,clear sky,66.2,59,2.3,0,0,0
182,São João da Barra,BR,-21.6403,-41.0511,2021-04-17 21:48:26,scattered clouds,77.0,78,13.8,40,0,0
183,Tual,ID,-5.6667,132.75,2021-04-17 21:48:26,overcast clouds,78.55,86,9.6,100,0,0
184,Shumskiy,RU,54.8318,99.1328,2021-04-17 21:48:26,scattered clouds,14.63,92,2.33,45,0,0
185,Businga,CD,3.3333,20.8833,2021-04-17 21:48:27,broken clouds,72.23,91,2.91,79,0,0
186,Lebu,CL,-37.6167,-73.65,2021-04-17 21:48:27,broken clouds,57.07,83,4.5,78,0,0
187,Bermejillo,MX,25.8833,-103.6167,2021-04-17 21:48:28,clear sky,89.6,13,9.55,1,0,0
188,Mossamedes,AO,-15.1961,12.1522,2021-04-17 21:48:29,clear sky,81.72,68,4.43,0,0,0
189,Bibiani,GH,6.4635,-2.3194,2021-04-17 21:48:29,overcast clouds,72.97,95,2.35,94,0,0
190,New Norfolk,AU,-42.7826,147.0587,2021-04-17 21:48:30,light rain,55.99,79,5.01,100,0,0
191,Caravelas,BR,-17.7125,-39.2481,2021-04-17 21:48:30,broken clouds,75.18,72,5.73,78,0,0
192,Chokurdakh,RU,70.6333,147.9167,2021-04-17 21:48:31,overcast clouds,13.69,88,4.85,100,0,0
193,San Martín,AR,-33.081,-68.4681,2021-04-17 21:48:31,few clouds,78.8,44,6.91,20,0,0
194,Faanui,PF,-16.4833,-151.75,2021-04-17 21:48:32,overcast clouds,82.35,72,10.2,88,0,0
195,Clyde River,CA,70.4692,-68.5914,2021-04-17 21:48:32,overcast clouds,8.6,78,17.27,90,0,0
196,Bungu,TZ,-7.6337,39.0582,2021-04-17 21:48:33,light rain,70.57,96,4.97,49,0,0
197,Kumul,CN,42.8,93.45,2021-04-17 21:48:33,overcast clouds,61.14,16,13.35,93,0,0
198,Ongandjera,NA,-17.8833,15.0667,2021-04-17 21:48:33,overcast clouds,74.82,43,7.7,91,0,0
199,Talnakh,RU,69.4865,88.3972,2021-04-17 21:48:34,broken clouds,-24.05,95,2.44,66,0,0
200,Morro Bay,US,35.3658,-120.8499,2021-04-17 21:48:34,few clouds,78.01,80,11.01,15,0,0
201,Kumluca,TR,36.3703,30.2869,2021-04-17 21:48:35,overcast clouds,69.1,46,4.52,87,0,0
202,Port Augusta,AU,-32.5,137.7667,2021-04-17 21:48:35,overcast clouds,55.4,94,3.44,90,0,0
203,Mandan,US,46.8267,-100.8896,2021-04-17 21:48:35,clear sky,59.0,33,11.5,1,0,0
204,San Fernando,PH,15.0286,120.6898,2021-04-17 21:47:56,broken clouds,77.0,88,4.61,75,0,0
205,Sioux Lookout,CA,50.1001,-91.917,2021-04-17 21:48:36,few clouds,51.8,28,12.66,20,0,0
206,Narsaq,GL,60.9167,-46.05,2021-04-17 21:48:37,clear sky,28.4,34,11.5,0,0,0
207,Karpogory,RU,64.0019,44.4451,2021-04-17 21:48:37,broken clouds,30.61,75,7.56,67,0,0
208,Gigmoto,PH,13.7796,124.39,2021-04-17 21:48:37,moderate rain,78.37,87,25.05,100,0,0
209,Novoye Leushino,RU,56.8073,40.5144,2021-04-17 21:48:38,clear sky,41.56,78,9.24,1,0,0
210,Cidreira,BR,-30.1811,-50.2056,2021-04-17 21:48:39,overcast clouds,70.77,85,9.15,100,0,0
211,Ilo,PE,-17.6394,-71.3375,2021-04-17 21:48:39,few clouds,71.6,73,6.91,20,0,0
212,Esperance,AU,-33.8667,121.9,2021-04-17 21:48:39,clear sky,53.6,87,11.5,0,0,0
213,Povenets,RU,62.8487,34.8262,2021-04-17 21:48:40,clear sky,33.24,93,4.47,9,0,0
214,Coquimbo,CL,-29.9533,-71.3436,2021-04-17 21:48:40,broken clouds,59.0,82,10.36,75,0,0
215,Shakawe,BW,-18.3667,21.85,2021-04-17 21:48:41,few clouds,64.4,50,5.77,13,0,0
216,Pangnirtung,CA,66.1451,-65.7125,2021-04-17 21:48:41,broken clouds,5.23,94,2.13,84,0,0
217,Aripuanã,BR,-9.1667,-60.6333,2021-04-17 21:48:41,moderate rain,73.6,98,2.66,100,0,0
218,Richards Bay,ZA,-28.783,32.0377,2021-04-17 21:48:42,clear sky,60.08,77,6.62,1,0,0
219,Comodoro Rivadavia,AR,-45.8667,-67.5,2021-04-17 21:45:02,clear sky,62.6,55,5.75,0,0,0
220,Taunggyi,MM,20.7833,97.0333,2021-04-17 21:48:42,clear sky,57.04,88,1.52,5,0,0
221,Atar,MR,20.5169,-13.0499,2021-04-17 21:48:43,clear sky,79.27,18,9.15,0,0,0
222,Sorong,ID,-0.8833,131.25,2021-04-17 21:48:43,overcast clouds,78.19,86,7.61,97,0,0
223,Souillac,MU,-20.5167,57.5167,2021-04-17 21:48:44,light rain,77.0,88,8.05,75,0,0
224,Adrar,MR,20.5022,-10.0711,2021-04-17 21:48:44,clear sky,75.85,20,10.83,0,0,0
225,Ligayan,PH,4.6533,119.4706,2021-04-17 21:48:45,overcast clouds,82.56,76,12.3,100,0,0
226,Santa Maria da Vitória,BR,-13.3947,-44.1886,2021-04-17 21:48:45,overcast clouds,81.54,42,1.03,96,0,0
227,Kahului,US,20.8947,-156.47,2021-04-17 21:48:15,light rain,71.6,100,9.22,40,0,0
228,La Santisima Trinidad,BO,-14.8333,-64.9,2021-04-17 21:48:46,broken clouds,78.15,90,2.59,63,0,0
229,Vao,NC,-22.6667,167.4833,2021-04-17 21:48:46,scattered clouds,75.74,72,17.34,35,0,0
230,Carnarvon,AU,-24.8667,113.6333,2021-04-17 21:48:47,clear sky,75.63,62,5.3,1,0,0
231,Bethel,US,41.3712,-73.414,2021-04-17 21:48:47,overcast clouds,50.0,63,4.9,95,0,0
232,Tiksi,RU,71.6872,128.8694,2021-04-17 21:48:47,light snow,5.25,94,10.71,100,0,0
233,Provincia di Campobasso,IT,41.6333,14.5833,2021-04-17 21:48:48,overcast clouds,46.0,80,1.68,89,0,0
234,Norman Wells,CA,65.282,-126.8329,2021-04-17 21:48:48,few clouds,48.2,40,11.5,20,0,0
235,Ulladulla,AU,-35.35,150.4667,2021-04-17 21:48:49,overcast clouds,54.0,100,5.75,90,0,0
236,Henties Bay,NA,-22.116,14.2845,2021-04-17 21:48:49,overcast clouds,78.35,41,16.46,99,0,0
237,Tekeli,KZ,44.83,78.8239,2021-04-17 21:48:49,few clouds,44.62,68,8.05,22,0,0
238,Nome,US,64.5011,-165.4064,2021-04-17 21:46:29,overcast clouds,33.01,93,8.05,90,0,0
239,Waipawa,NZ,-41.4122,175.5153,2021-04-17 21:48:50,clear sky,61.0,63,6.91,5,0,0
240,Muisne,EC,0.6,-80.0333,2021-04-17 21:48:51,broken clouds,82.4,83,5.75,75,0,0
241,Cherskiy,RU,68.75,161.3,2021-04-17 21:48:51,clear sky,23.29,71,26.78,1,0,0
242,Kidal,ML,18.4411,1.4078,2021-04-17 21:48:51,overcast clouds,90.18,6,4.92,100,0,0
243,Alofi,NU,-19.0595,-169.9187,2021-04-17 21:46:53,few clouds,82.4,69,5.75,14,0,0
244,Chiapa,MX,18.4669,-96.945,2021-04-17 21:48:52,broken clouds,85.37,33,8.03,52,0,0
245,Belmonte,BR,-15.8631,-38.8828,2021-04-17 21:48:53,few clouds,77.0,78,8.05,20,0,0
246,Port Hedland,AU,-20.3167,118.5667,2021-04-17 21:48:53,scattered clouds,77.0,41,10.36,50,0,0
247,Mitú,CO,1.1983,-70.1733,2021-04-17 21:48:53,broken clouds,78.66,84,2.37,63,0,0
248,Constitución,CL,-35.3333,-72.4167,2021-04-17 21:48:54,broken clouds,57.74,82,3.0,75,0,0
249,Dutlwe,BW,-23.9833,23.9,2021-04-17 21:48:54,broken clouds,66.76,46,12.24,60,0,0
250,Marystown,CA,47.1666,-55.1483,2021-04-17 21:48:55,overcast clouds,40.51,75,19.71,100,0,0
251,Ilulissat,GL,69.2167,-51.1,2021-04-17 21:48:55,few clouds,8.6,61,11.5,20,0,0
252,Mayo,US,38.8876,-76.5119,2021-04-17 21:48:55,overcast clouds,57.0,62,4.61,90,0,0
253,Asău,RO,46.4333,26.4,2021-04-17 21:48:56,overcast clouds,42.01,50,3.04,100,0,0
254,Nobeoka,JP,32.5833,131.6667,2021-04-17 21:48:56,few clouds,41.0,65,1.99,22,0,0
255,Weihai,CN,37.5017,122.1136,2021-04-17 21:48:57,clear sky,44.83,75,8.03,0,0,0
256,Shintomi,JP,32.0785,131.4723,2021-04-17 21:48:57,few clouds,51.8,46,14.97,20,0,0
257,Igbo-Ora,NG,7.4333,3.2833,2021-04-17 21:48:57,overcast clouds,79.57,77,2.8,100,0,0
258,Abadan,TM,38.0507,58.2056,2021-04-17 21:48:58,clear sky,60.8,41,2.15,0,0,0
259,Itaqui,BR,-29.1253,-56.5531,2021-04-17 21:48:58,broken clouds,74.14,65,8.01,63,0,0
260,Niamey,NE,13.5137,2.1098,2021-04-17 21:48:08,broken clouds,96.8,19,11.5,61,0,0
261,Muskogee,US,35.5834,-95.3336,2021-04-17 21:48:59,overcast clouds,57.2,54,12.66,90,0,0
262,Mulegé,MX,26.8833,-111.9833,2021-04-17 21:49:00,clear sky,79.77,31,10.25,0,0,0
263,Barra Patuca,HN,15.8,-84.2833,2021-04-17 21:49:00,few clouds,83.82,74,16.98,16,0,0
264,Russellville,US,35.2784,-93.1338,2021-04-17 21:45:07,overcast clouds,57.99,76,6.91,90,0,0
265,Chicama,PE,-7.8447,-79.1469,2021-04-17 21:49:01,mist,66.2,88,8.05,90,0,0
266,Mahibadhoo,MV,3.7833,72.9667,2021-04-17 21:49:02,broken clouds,83.01,73,12.24,62,0,0
267,Mahina,PF,-17.5065,-149.489,2021-04-17 21:49:02,few clouds,87.8,66,12.66,20,0,0
268,Lang Son,VN,21.8333,106.7333,2021-04-17 21:49:02,overcast clouds,65.75,92,2.86,100,0,0
269,Taoudenni,ML,22.6783,-3.9836,2021-04-17 21:49:03,clear sky,84.7,15,10.31,0,0,0
270,Hong Kong,HK,22.2855,114.1577,2021-04-17 21:44:24,overcast clouds,73.99,66,1.01,96,0,0
271,Husavik,IS,66.0449,-17.3389,2021-04-17 21:49:04,overcast clouds,39.2,93,8.05,90,0,0
272,Itarema,BR,-2.9248,-39.9167,2021-04-17 21:49:04,clear sky,78.76,82,11.81,9,0,0
273,Kirensk,RU,57.7853,108.1119,2021-04-17 21:49:04,broken clouds,12.69,94,3.74,77,0,0
274,Saskylakh,RU,71.9167,114.0833,2021-04-17 21:49:05,overcast clouds,6.55,95,10.98,100,0,0
275,Øksfjord,NO,70.2396,22.3479,2021-04-17 21:49:05,clear sky,37.4,75,4.61,1,0,0
276,Adolfo López Mateos,MX,28.4667,-107.3,2021-04-17 21:49:06,clear sky,71.01,21,11.01,5,0,0
277,Jinka,ET,5.65,36.65,2021-04-17 21:49:06,light rain,63.37,85,5.06,100,0,0
278,Salta,AR,-24.7859,-65.4117,2021-04-17 21:49:07,scattered clouds,73.4,64,6.91,40,0,0
279,Lüderitz,NA,-26.6481,15.1594,2021-04-17 21:49:07,scattered clouds,78.28,36,4.47,35,0,0
280,Jiangyou,CN,31.7667,104.7167,2021-04-17 21:49:07,overcast clouds,57.0,95,2.06,100,0,0
281,Margate,GB,51.3813,1.3862,2021-04-17 21:49:08,overcast clouds,43.0,68,3.0,100,0,0
282,Bengkulu,ID,-3.8004,102.2655,2021-04-17 21:49:08,overcast clouds,75.07,87,3.0,100,0,0
283,Dicabisagan,PH,17.0818,122.4157,2021-04-17 21:49:09,overcast clouds,77.2,83,12.3,100,0,0
284,Sabha,LY,27.0377,14.4283,2021-04-17 21:49:09,overcast clouds,85.12,17,18.14,100,0,0
285,Ketchikan,US,55.3422,-131.6461,2021-04-17 21:49:10,clear sky,57.2,51,9.22,1,0,0
286,Balkhash,KZ,46.844,74.9804,2021-04-17 21:49:10,broken clouds,49.96,61,14.52,55,0,0
287,Port Keats,AU,-14.25,129.55,2021-04-17 21:46:10,overcast clouds,74.5,44,12.41,100,0,0
288,Lorengau,PG,-2.0226,147.2712,2021-04-17 21:49:11,broken clouds,81.86,74,13.0,83,0,0
289,Lewisporte,CA,49.2499,-55.0482,2021-04-17 21:49:11,broken clouds,37.4,70,25.32,75,0,0
290,Airai,TL,-8.9266,125.4092,2021-04-17 21:49:12,overcast clouds,58.46,81,2.15,95,0,0
291,Shelburne,CA,44.0787,-80.2041,2021-04-17 21:45:04,clear sky,51.8,54,13.8,1,0,0
292,Voyvozh,RU,62.892,54.9635,2021-04-17 21:49:12,broken clouds,23.88,81,10.69,60,0,0
293,Kununurra,AU,-15.7667,128.7333,2021-04-17 21:49:13,scattered clouds,75.2,41,10.36,28,0,0
294,Letlhakane,BW,-21.4167,25.5833,2021-04-17 21:49:13,clear sky,61.9,55,14.18,0,0,0
295,Urengoy,RU,65.9667,78.3667,2021-04-17 21:49:14,scattered clouds,-13.4,100,8.01,44,0,0
296,Grand-Lahou,CI,5.1367,-5.0242,2021-04-17 21:49:14,broken clouds,79.3,82,5.41,84,0,0
297,Muzhi,RU,65.3667,64.6667,2021-04-17 21:49:15,scattered clouds,-9.2,97,5.28,34,0,0
298,Kabinda,CD,-6.1333,24.4833,2021-04-17 21:49:15,scattered clouds,68.23,91,4.94,34,0,0
299,Mâncio Lima,BR,-7.6142,-72.8958,2021-04-17 21:49:16,broken clouds,82.4,78,4.61,75,0,0
300,Brae,GB,60.3964,-1.353,2021-04-17 21:49:16,clear sky,42.8,75,23.02,0,0,0
301,Emporia,US,38.4039,-96.1817,2021-04-17 21:47:47,overcast clouds,51.8,71,6.91,90,0,0
302,Nishihara,JP,26.1842,127.7558,2021-04-17 21:49:17,haze,64.4,67,14.97,40,0,0
303,Chalisgaon,IN,20.4667,75.0167,2021-04-17 21:49:17,clear sky,85.23,24,2.17,2,0,0
304,Virtsu,EE,58.5716,23.5115,2021-04-17 21:49:17,overcast clouds,45.0,48,11.01,99,0,0
305,Buraidah,SA,26.326,43.975,2021-04-17 21:49:18,few clouds,75.2,38,8.05,20,0,0
306,San Patricio,US,28.017,-97.5169,2021-04-17 21:49:18,overcast clouds,66.2,63,10.36,90,0,0
307,Mackay,AU,-21.15,149.2,2021-04-17 21:49:19,overcast clouds,72.0,83,13.8,90,0,0
308,Guerrero Negro,MX,27.9769,-114.0611,2021-04-17 21:49:19,clear sky,66.16,58,19.57,1,0,0
309,Wadi Maliz,TN,36.4681,8.5495,2021-04-17 21:49:19,few clouds,46.4,87,2.3,24,0,0
310,Province of Mantua,IT,45.1667,10.7833,2021-04-17 21:49:20,scattered clouds,48.99,70,1.01,36,0,0
311,Sangar,RU,63.9242,127.4739,2021-04-17 21:49:20,overcast clouds,14.95,89,8.25,94,0,0
312,Mutoko,ZW,-17.397,32.2268,2021-04-17 21:49:20,overcast clouds,53.15,77,1.74,100,0,0
313,Malé,MV,4.1748,73.5089,2021-04-17 21:49:21,scattered clouds,84.2,79,9.22,40,0,0
314,Bubaque,GW,11.2833,-15.8333,2021-04-17 21:49:21,overcast clouds,76.71,74,14.83,86,0,0
315,Louis Trichardt,ZA,-23.0439,29.9032,2021-04-17 21:49:22,clear sky,50.02,88,4.65,0,0,0
316,Hanmer Springs,NZ,-42.5167,172.8167,2021-04-17 21:49:22,clear sky,53.4,59,4.81,9,0,0
317,Hay River,CA,60.8156,-115.7999,2021-04-17 21:49:22,light snow,33.8,75,3.44,100,0,0
318,Maizières-lès-Metz,FR,49.2075,6.1605,2021-04-17 21:49:23,clear sky,46.4,57,9.22,0,0,0
319,San Cristobal,VE,7.7669,-72.225,2021-04-17 21:49:23,scattered clouds,86.0,54,16.11,40,0,0
320,Saltpond,GH,5.2091,-1.0606,2021-04-17 21:49:24,overcast clouds,81.75,79,11.97,97,0,0
321,Vila Velha,BR,-20.3297,-40.2925,2021-04-17 21:44:27,scattered clouds,78.01,78,3.44,40,0,0
322,Praia da Vitória,PT,38.7333,-27.0667,2021-04-17 21:49:24,few clouds,66.2,82,7.72,20,0,0
323,Kautokeino,NO,69.0125,23.0412,2021-04-17 21:49:25,broken clouds,17.56,99,2.08,76,0,0
324,Panjāb,AF,34.388,67.0233,2021-04-17 21:49:25,few clouds,38.55,69,3.44,11,0,0
325,Ulaangom,MN,49.9811,92.0667,2021-04-17 21:49:26,clear sky,41.22,52,4.34,5,0,0
326,Pozo Colorado,PY,-23.4923,-58.7972,2021-04-17 21:49:26,overcast clouds,86.13,42,7.34,86,0,0
327,Biak,ID,-0.9131,122.8766,2021-04-17 21:49:26,broken clouds,75.07,80,4.41,73,0,0
328,Kalangala,UG,-0.3089,32.225,2021-04-17 21:49:27,light rain,73.71,71,10.36,100,0,0
329,Havelock,US,34.8791,-76.9013,2021-04-17 21:49:27,clear sky,66.2,52,10.36,1,0,0
330,Devonport,AU,-41.1667,146.35,2021-04-17 21:49:27,broken clouds,59.0,80,1.99,78,0,0
331,Goderich,CA,43.7501,-81.7165,2021-04-17 21:49:28,overcast clouds,42.8,81,4.61,97,0,0
332,Lingao,CN,19.9103,109.6859,2021-04-17 21:49:28,broken clouds,74.07,91,10.76,55,0,0
333,Aksu,CN,41.1231,80.2644,2021-04-17 21:49:29,scattered clouds,58.69,29,6.82,26,0,0
334,Basoko,CD,1.2391,23.616,2021-04-17 21:49:29,overcast clouds,73.56,93,0.58,100,0,0
335,Tamale,GH,9.4008,-0.8393,2021-04-17 21:49:29,light rain,84.51,49,1.92,90,0,0
336,Vardø,NO,70.3705,31.1107,2021-04-17 21:49:30,overcast clouds,35.13,91,9.64,96,0,0
337,Broome,US,42.2506,-75.833,2021-04-17 21:49:30,overcast clouds,46.99,65,8.05,100,0,0
338,Krasnosel'kup,RU,65.7,82.4667,2021-04-17 21:49:30,broken clouds,-11.22,93,12.03,68,0,0
339,Ambilobe,MG,-13.2,49.05,2021-04-17 21:49:31,scattered clouds,73.36,96,3.76,43,0,0
340,Geraldton,AU,-28.7667,114.6,2021-04-17 21:49:31,broken clouds,66.2,42,8.05,65,0,0
341,Belaya Gora,RU,68.5333,146.4167,2021-04-17 21:49:32,overcast clouds,23.16,81,8.41,100,0,0
342,Tadine,NC,-21.55,167.8833,2021-04-17 21:49:32,clear sky,77.68,70,12.77,7,0,0
343,Rasskazovo,RU,52.6714,41.9033,2021-04-17 21:49:33,overcast clouds,44.1,90,4.72,86,0,0
344,Nador,MA,35.174,-2.9287,2021-04-17 21:49:33,clear sky,59.0,82,3.85,0,0,0
345,Barcelos,PT,41.5388,-8.6151,2021-04-17 21:49:33,clear sky,57.99,76,3.11,0,0,0
346,Savinka,RU,50.0785,47.0994,2021-04-17 21:49:34,broken clouds,48.81,80,8.39,55,0,0
347,Paamiut,GL,61.994,-49.6678,2021-04-17 21:49:34,clear sky,18.37,65,9.15,6,0,0
348,Arenápolis,BR,-14.4503,-56.8461,2021-04-17 21:49:34,overcast clouds,79.72,74,3.85,90,0,0
349,Sandūr,IN,15.1,76.55,2021-04-17 21:49:35,scattered clouds,81.61,57,5.84,45,0,0
350,Kupang,ID,-10.1667,123.5833,2021-04-17 21:49:35,overcast clouds,75.99,85,5.17,91,0,0
351,Salalah,OM,17.0151,54.0924,2021-04-17 21:49:36,clear sky,78.8,73,2.3,0,0,0
352,Khorixas,NA,-20.3667,14.9667,2021-04-17 21:49:36,broken clouds,76.64,24,7.81,79,0,0
353,Wanaka,NZ,-44.7,169.15,2021-04-17 21:48:14,overcast clouds,49.37,83,6.51,96,0,0
354,Lompoc,US,34.6391,-120.4579,2021-04-17 21:49:36,clear sky,61.0,63,14.97,1,0,0
355,Heraclea,TR,37.5133,34.0467,2021-04-17 21:49:37,overcast clouds,65.01,34,7.11,98,0,0
356,Basco,PH,20.4487,121.9702,2021-04-17 21:49:37,overcast clouds,76.48,74,34.83,99,0,0
357,Colquiri,BO,-17.4167,-67.1333,2021-04-17 21:49:38,clear sky,47.17,42,3.49,2,0,0
358,Bridgton,US,44.0548,-70.7128,2021-04-17 21:49:38,overcast clouds,45.0,71,1.99,100,0,0
359,Bolobo,CD,-2.1667,16.2333,2021-04-17 21:49:38,overcast clouds,76.37,79,2.42,100,0,0
360,Sobolevo,RU,54.4299,31.8996,2021-04-17 21:49:39,overcast clouds,49.32,85,10.56,100,0,0
361,Findlay,US,41.0442,-83.6499,2021-04-17 21:49:39,few clouds,57.99,51,6.91,20,0,0
362,Sarishābāri,BD,24.7333,89.8333,2021-04-17 21:49:40,clear sky,75.11,68,13.67,4,0,0
363,Amzya,RU,56.2354,54.3868,2021-04-17 21:49:40,clear sky,39.16,72,3.98,0,0,0
364,Korla,CN,41.7597,86.1469,2021-04-17 21:49:40,overcast clouds,61.11,27,9.04,97,0,0
365,Klyuchi,RU,52.2667,79.1667,2021-04-17 21:49:41,clear sky,35.82,62,7.09,0,0,0
366,Tshela,CD,-4.9833,12.9333,2021-04-17 21:49:41,overcast clouds,73.54,95,1.3,96,0,0
367,Ratholo,BW,-22.7245,27.572,2021-04-17 21:49:42,clear sky,57.29,63,4.99,0,0,0
368,Amapá,BR,1.0,-52.0,2021-04-17 21:49:42,moderate rain,73.71,98,3.89,91,0,0
369,Yangshan,CN,28.7615,115.0287,2021-04-17 21:49:42,overcast clouds,57.88,66,3.85,100,0,0
370,Vanimo,PG,-2.6741,141.3028,2021-04-17 21:49:43,overcast clouds,76.68,87,4.79,98,0,0
371,Puri,IN,19.8,85.85,2021-04-17 21:49:43,haze,80.6,89,9.22,20,0,0
372,Benguela,AO,-12.5763,13.4055,2021-04-17 21:49:44,clear sky,79.79,78,2.95,8,0,0
373,Ol'ga,RU,43.7444,135.2892,2021-04-17 21:49:45,light rain,40.01,74,6.69,79,0,0
374,At-Bashi,KG,41.1702,75.8106,2021-04-17 21:49:45,overcast clouds,40.6,55,3.22,100,0,0
375,Aguilares,AR,-27.4338,-65.6143,2021-04-17 21:49:46,few clouds,75.99,82,2.04,11,0,0
376,Santiago del Estero,AR,-27.7951,-64.2615,2021-04-17 21:49:46,clear sky,79.03,59,2.51,9,0,0
377,Arrondissement du Havre,FR,49.5833,0.3333,2021-04-17 21:49:46,clear sky,39.99,87,9.22,0,0,0
378,Brezovo,BG,42.35,25.0833,2021-04-17 21:49:47,overcast clouds,46.4,76,11.5,90,0,0
379,Kroya,ID,-7.6331,109.2461,2021-04-17 21:49:47,scattered clouds,76.14,88,3.29,36,0,0
380,Matara,LK,5.9485,80.5353,2021-04-17 21:49:48,overcast clouds,76.15,91,6.4,95,0,0
381,Gayéri,BF,12.6497,0.4931,2021-04-17 21:49:48,overcast clouds,89.38,36,12.24,97,0,0
382,Touros,BR,-5.1989,-35.4608,2021-04-17 21:49:48,light rain,77.0,88,5.75,40,0,0
383,Nouadhibou,MR,20.931,-17.0347,2021-04-17 21:49:49,clear sky,66.2,77,14.97,0,0,0
384,Neiafu,TO,-18.65,-173.9833,2021-04-17 21:49:49,few clouds,80.6,74,6.91,20,0,0
385,Antalaha,MG,-14.9003,50.2788,2021-04-17 21:49:50,moderate rain,74.73,92,4.83,100,0,0
386,Oranjemund,NA,-28.55,16.4333,2021-04-17 21:49:50,scattered clouds,72.93,45,3.27,40,0,0
387,Severodvinsk,RU,64.5635,39.8302,2021-04-17 21:49:50,few clouds,33.8,80,6.71,20,0,0
388,Grenville,GD,12.1167,-61.6167,2021-04-17 21:49:51,scattered clouds,84.2,70,20.71,40,0,0
389,Sibolga,ID,1.7427,98.7792,2021-04-17 21:49:51,broken clouds,74.84,86,3.96,64,0,0
390,College,US,64.8569,-147.8028,2021-04-17 21:48:56,clear sky,46.4,45,2.98,1,0,0
391,Cabo San Lucas,MX,22.8909,-109.9124,2021-04-17 21:48:41,clear sky,82.99,34,12.66,1,0,0
392,Vestmannaeyjar,IS,63.4427,-20.2734,2021-04-17 21:49:52,overcast clouds,38.77,93,25.64,100,0,0
393,Eureka,US,40.8021,-124.1637,2021-04-17 21:49:53,overcast clouds,54.0,93,8.05,90,0,0
394,Guipavas,FR,48.4352,-4.3972,2021-04-17 21:49:53,clear sky,44.6,87,5.75,0,0,0
395,Coari,BR,-4.085,-63.1414,2021-04-17 21:49:53,overcast clouds,75.16,97,1.99,100,0,0
396,Varhaug,NO,58.6147,5.6457,2021-04-17 21:49:54,broken clouds,39.99,74,7.78,56,0,0
397,Magadan,RU,59.5667,150.8,2021-04-17 21:49:54,overcast clouds,25.74,91,7.56,100,0,0
398,Coyhaique,CL,-45.5752,-72.0662,2021-04-17 21:48:05,light rain,59.0,67,3.44,75,0,0
399,Orange Cove,US,36.6244,-119.3137,2021-04-17 21:49:55,clear sky,78.01,36,5.01,4,0,0
400,Clarksburg,US,39.2807,-80.3445,2021-04-17 21:47:57,broken clouds,57.99,44,6.91,75,0,0
401,Noumea,NC,-22.2763,166.4572,2021-04-17 21:49:55,clear sky,78.01,78,1.14,0,0,0
402,Dongsheng,CN,39.8161,109.9776,2021-04-17 21:49:56,clear sky,38.34,28,8.57,0,0,0
403,Kunya,NG,12.2233,8.5325,2021-04-17 21:49:56,clear sky,82.4,26,4.61,0,0,0
404,Santa Rosa,PH,14.3122,121.1114,2021-04-17 21:49:57,scattered clouds,80.6,78,2.3,40,0,0
405,Bondo,CD,3.8146,23.6866,2021-04-17 21:49:57,overcast clouds,70.11,92,1.01,94,0,0
406,Turukhansk,RU,65.8167,87.9833,2021-04-17 21:49:57,overcast clouds,2.98,93,8.68,100,0,0
407,Hofn,IS,64.2539,-15.2082,2021-04-17 21:49:58,light rain,45.23,98,13.6,100,0,0
408,Beşikdüzü,TR,41.052,39.2284,2021-04-17 21:47:03,broken clouds,51.8,100,8.77,75,0,0
409,Vestmanna,FO,62.1564,-7.1664,2021-04-17 21:49:58,overcast clouds,46.4,76,25.32,100,0,0
410,Mangit,UZ,40.5971,70.9607,2021-04-17 21:49:59,overcast clouds,55.4,54,4.61,100,0,0
411,Meulaboh,ID,4.1363,96.1285,2021-04-17 21:49:59,overcast clouds,76.64,86,3.09,95,0,0
412,Mount Gambier,AU,-37.8333,140.7667,2021-04-17 21:50:00,broken clouds,53.6,94,8.05,75,0,0
413,Puerto Escondido,MX,15.85,-97.0667,2021-04-17 21:50:00,scattered clouds,86.0,70,8.05,40,0,0
414,Mildura,AU,-34.2,142.15,2021-04-17 21:47:05,broken clouds,51.01,81,5.23,75,0,0
415,The Pas,CA,53.8251,-101.2541,2021-04-17 21:50:01,overcast clouds,51.8,37,9.22,90,0,0
416,Çanakkale Province,TR,40.0833,26.8333,2021-04-17 21:50:01,clear sky,51.8,82,11.5,0,0,0
417,Carupano,VE,10.6678,-63.2585,2021-04-17 21:50:02,scattered clouds,81.07,72,12.33,40,0,0
418,Port-Gentil,GA,-0.7193,8.7815,2021-04-17 21:45:32,light rain,82.4,89,4.61,40,0,0
419,Mezen',RU,65.8522,44.24,2021-04-17 21:50:02,few clouds,25.77,89,5.79,20,0,0
420,Tot'ma,RU,59.9747,42.7642,2021-04-17 21:50:04,clear sky,37.13,76,4.59,9,0,0
421,Ulaanbaatar,MN,47.9077,106.8832,2021-04-17 21:49:46,clear sky,26.6,68,2.24,0,0,0
422,Ballina,AU,-28.8667,153.5667,2021-04-17 21:50:05,overcast clouds,60.8,82,12.66,100,0,0
423,Cabedelo,BR,-6.9811,-34.8339,2021-04-17 21:50:05,scattered clouds,77.0,100,3.44,40,0,0
424,Pandan,PH,14.0453,124.1694,2021-04-17 21:50:06,light rain,78.85,86,25.41,100,0,0
425,Jizan,SA,17.3333,42.6667,2021-04-17 21:50:06,few clouds,86.0,74,4.61,20,0,0
426,Shingū,JP,33.7333,135.9833,2021-04-17 21:50:06,scattered clouds,50.85,61,11.56,42,0,0
427,Bikramganj,IN,25.2,84.25,2021-04-17 21:50:07,scattered clouds,84.63,19,5.26,33,0,0
428,Dombarovskiy,RU,50.7587,59.5386,2021-04-17 21:50:07,broken clouds,50.86,66,6.96,71,0,0
429,Oksovskiy,RU,62.6062,39.8984,2021-04-17 21:50:08,few clouds,35.47,88,4.12,13,0,0
430,Mogadishu,SO,2.0371,45.3438,2021-04-17 21:50:08,overcast clouds,82.81,72,8.5,98,0,0
431,Moberly,US,39.4184,-92.4382,2021-04-17 21:50:08,broken clouds,57.2,58,12.66,75,0,0
432,Marabu,MY,4.4148,114.0089,2021-04-17 21:50:09,scattered clouds,77.0,88,3.44,40,0,0
433,Hasaki,JP,35.7333,140.8333,2021-04-17 21:50:09,few clouds,59.0,82,11.5,20,0,0
434,Vila Franca do Campo,PT,37.7167,-25.4333,2021-04-17 21:50:10,broken clouds,62.6,100,8.05,75,0,0
435,Chambishi,ZM,-12.6325,28.0537,2021-04-17 21:50:10,broken clouds,56.97,82,6.53,77,0,0
436,Madang,PG,-5.2246,145.7966,2021-04-17 21:50:11,light rain,74.35,96,6.98,100,0,0
437,Juneau,US,58.3019,-134.4197,2021-04-17 21:45:12,scattered clouds,57.2,51,10.36,40,0,0
438,Havre-St-Pierre,CA,50.2334,-63.5986,2021-04-17 21:50:11,clear sky,35.6,69,10.36,1,0,0
439,Long Xuyen,VN,10.3833,105.4167,2021-04-17 21:50:11,scattered clouds,77.0,100,1.14,40,0,0
440,Pontes e Lacerda,BR,-15.2261,-59.3353,2021-04-17 21:50:12,light rain,80.15,73,1.9,46,0,0
441,Muyezerskiy,RU,63.9333,31.65,2021-04-17 21:50:12,clear sky,29.62,97,2.42,7,0,0
442,Lárdos,GR,36.0942,28.0157,2021-04-17 21:50:13,scattered clouds,68.0,52,9.22,40,0,0
443,Robertsport,LR,6.7533,-11.3686,2021-04-17 21:50:13,light rain,79.68,75,7.16,99,0,0
444,Pinega,RU,64.7001,43.3936,2021-04-17 21:50:14,scattered clouds,30.61,78,6.4,45,0,0
445,Yumen,CN,40.2833,97.2,2021-04-17 21:50:14,overcast clouds,47.64,17,3.11,98,0,0
446,Deputatsky,RU,69.3,139.9,2021-04-17 21:50:14,overcast clouds,16.03,75,17.72,100,0,0
447,Klaksvík,FO,62.2266,-6.589,2021-04-17 21:50:15,overcast clouds,46.4,76,25.32,100,0,0
448,Departamento de Maldonado,UY,-34.6667,-54.9167,2021-04-17 21:50:15,few clouds,68.0,83,9.22,20,0,0
449,Berlevåg,NO,70.8578,29.0864,2021-04-17 21:50:16,scattered clouds,36.5,86,13.15,40,0,0
450,Saint-Augustin,CA,51.226,-58.6502,2021-04-17 21:50:16,clear sky,35.47,67,14.67,3,0,0
451,Port-Cartier,CA,50.0334,-66.8654,2021-04-17 21:50:16,few clouds,39.0,60,17.27,20,0,0
452,Ambanja,MG,-13.6833,48.45,2021-04-17 21:50:17,moderate rain,74.08,94,3.51,79,0,0
453,Padang,ID,-0.9492,100.3543,2021-04-17 21:50:17,overcast clouds,75.13,85,3.78,100,0,0
454,Saldanha,ZA,-33.0117,17.9442,2021-04-17 21:50:18,clear sky,66.2,34,9.26,0,0,0
455,Ayan,RU,56.45,138.1667,2021-04-17 21:50:18,overcast clouds,22.46,92,4.03,96,0,0
456,Calmeca,MX,18.6333,-98.6333,2021-04-17 21:50:19,few clouds,95.0,17,18.41,20,0,0
457,Oga,IT,46.4631,10.347,2021-04-17 21:50:19,broken clouds,39.99,69,6.91,75,0,0
458,Pogar,RU,52.554,33.2591,2021-04-17 21:50:20,light rain,42.35,91,10.87,100,0,0
459,Fayaoué,NC,-20.65,166.5333,2021-04-17 21:50:20,broken clouds,78.19,75,16.75,70,0,0
460,Ixtapa,MX,20.7,-105.2,2021-04-17 21:50:13,clear sky,82.4,61,12.66,1,0,0
461,Rome,US,43.2128,-75.4557,2021-04-17 21:50:21,overcast clouds,48.99,76,10.36,90,0,0
462,Tottori-shi,JP,35.5,134.2333,2021-04-17 21:50:21,broken clouds,44.6,81,5.75,75,0,0
463,Key Largo,US,25.0865,-80.4473,2021-04-17 21:50:22,clear sky,87.01,81,10.58,0,0,0
464,San Quintín,MX,30.4833,-115.95,2021-04-17 21:50:22,clear sky,63.46,64,16.67,0,0,0
465,Port Hardy,CA,50.6996,-127.4199,2021-04-17 21:50:22,clear sky,62.6,48,3.44,1,0,0
466,Sola,VU,-13.8833,167.55,2021-04-17 21:50:23,broken clouds,84.2,79,15.12,75,0,0
467,Saint-François,FR,46.4154,3.9054,2021-04-17 21:50:23,clear sky,48.2,53,10.36,0,0,0
468,Skerries,IE,53.5828,-6.1083,2021-04-17 21:45:27,clear sky,46.99,66,6.91,0,0,0
469,Opuwo,NA,-18.0607,13.84,2021-04-17 21:50:24,overcast clouds,70.75,52,3.83,92,0,0
470,Wanning,CN,18.8003,110.3967,2021-04-17 21:50:24,broken clouds,75.7,88,5.82,55,0,0
471,Masakin,TN,35.7292,10.5808,2021-04-17 21:50:25,scattered clouds,57.2,72,13.8,40,0,0
472,Rocha,UY,-34.4833,-54.3333,2021-04-17 21:50:25,few clouds,60.64,92,4.27,14,0,0
473,San Gavino Monreale,IT,39.5514,8.7917,2021-04-17 21:50:26,few clouds,48.99,87,2.3,20,0,0
474,Pulaski,US,34.7668,-92.3001,2021-04-17 21:50:26,overcast clouds,60.8,59,11.5,90,0,0
475,Kaili,ID,-3.4626,120.2147,2021-04-17 21:50:26,broken clouds,66.06,89,2.82,81,0,0
476,Oussouye,SN,12.485,-16.5469,2021-04-17 21:50:27,clear sky,78.8,83,2.3,0,0,0
477,Ormond Beach,US,29.2858,-81.0559,2021-04-17 21:48:34,broken clouds,73.99,88,9.22,75,0,0
478,Port Lincoln,AU,-34.7333,135.8667,2021-04-17 21:50:27,scattered clouds,57.33,76,4.18,25,0,0
479,Srednekolymsk,RU,67.45,153.6833,2021-04-17 21:50:28,overcast clouds,25.27,72,13.76,100,0,0
480,Petrovskoye,RU,57.0104,39.2693,2021-04-17 21:50:28,clear sky,41.65,79,10.6,3,0,0
481,Biryusinsk,RU,55.9634,97.8235,2021-04-17 21:50:29,few clouds,16.61,91,3.29,14,0,0
482,Mongo,TD,12.1844,18.693,2021-04-17 21:50:29,overcast clouds,88.27,7,6.2,90,0,0
483,Pitimbu,BR,-7.4706,-34.8086,2021-04-17 21:50:30,scattered clouds,77.0,100,3.44,40,0,0
484,Balyqshy,KZ,47.0667,51.8667,2021-04-17 21:50:30,clear sky,57.2,62,8.95,0,0,0
485,Sakakah,SA,29.9697,40.2064,2021-04-17 21:50:31,clear sky,75.2,27,8.05,0,0,0
486,Abalak,RU,58.1286,68.5944,2021-04-17 21:50:31,overcast clouds,36.39,74,9.19,100,0,0
487,Bereda,ES,43.2686,-7.5406,2021-04-17 21:50:32,clear sky,37.0,91,1.01,6,0,0
488,Carutapera,BR,-1.195,-46.02,2021-04-17 21:50:32,moderate rain,78.26,83,7.7,69,0,0
489,Letlhakeng,BW,-24.0944,25.0298,2021-04-17 21:50:33,few clouds,61.92,55,10.36,13,0,0
490,Kavaratti,IN,10.5669,72.642,2021-04-17 21:50:33,clear sky,83.73,70,5.46,7,0,0
491,Derzhavīnsk,KZ,51.1,66.3167,2021-04-17 21:50:34,scattered clouds,47.14,80,5.95,49,0,0
492,Maneromango,TZ,-7.1988,38.7848,2021-04-17 21:50:34,broken clouds,78.8,89,5.75,75,0,0
493,Borogontsy,RU,62.6683,131.1683,2021-04-17 21:50:35,scattered clouds,17.24,89,8.46,28,0,0
494,Avera,US,33.194,-82.5271,2021-04-17 21:50:35,overcast clouds,75.2,38,6.91,90,0,0
495,Beian,NO,63.6559,9.5683,2021-04-17 21:50:35,clear sky,39.2,75,4.61,0,0,0
496,Shebalino,RU,51.2917,85.6772,2021-04-17 21:50:36,scattered clouds,31.1,95,2.51,49,0,0
497,Zhanakorgan,KZ,43.9098,67.2495,2021-04-17 21:50:36,scattered clouds,64.15,34,5.64,25,0,0
498,Cauquenes,CL,-35.9671,-72.3225,2021-04-17 21:47:31,broken clouds,62.58,61,7.07,62,0,0
499,Ascension,US,30.2169,-90.9001,2021-04-17 21:50:37,light rain,64.4,82,8.05,90,0,0
500,Kaeo,NZ,-35.1,173.7833,2021-04-17 21:50:37,scattered clouds,64.0,71,1.99,25,0,0
501,Pisco,PE,-13.7,-76.2167,2021-04-17 21:50:38,clear sky,71.6,73,26.46,0,0,0
502,Hanko,FI,59.8333,22.95,2021-04-17 21:50:38,few clouds,44.01,50,14.14,24,0,0
503,Ahipara,NZ,-35.1667,173.1667,2021-04-17 21:50:38,overcast clouds,62.92,52,5.79,86,0,0
504,Luena,AO,-11.7833,19.9167,2021-04-17 21:50:39,few clouds,60.6,76,4.56,19,0,0
505,Grindavik,IS,63.8424,-22.4338,2021-04-17 21:50:39,overcast clouds,37.4,70,13.8,90,0,0
506,Santa Fe,AR,-31.6333,-60.7,2021-04-17 21:50:40,broken clouds,71.8,69,6.51,74,0,0
507,Erzin,TR,36.9559,36.2,2021-04-17 21:50:40,broken clouds,62.6,82,2.3,75,0,0
508,Nantucket,US,41.2835,-70.0995,2021-04-17 21:50:41,clear sky,46.4,66,17.27,1,0,0
509,Ust'-Kachka,RU,58.006,55.6725,2021-04-17 21:50:41,clear sky,35.6,60,8.95,0,0,0
510,Penzance,GB,50.1186,-5.5371,2021-04-17 21:50:41,clear sky,46.0,65,2.3,0,0,0
511,Stephenville Crossing,CA,48.5,-58.4318,2021-04-17 21:50:42,broken clouds,48.2,46,12.66,75,0,0
512,Puerto Madryn,AR,-42.7692,-65.0385,2021-04-17 21:50:42,overcast clouds,62.83,60,16.89,100,0,0
513,Greiz,DE,50.65,12.2,2021-04-17 21:50:43,overcast clouds,42.01,83,1.01,100,0,0
514,Chokwé,MZ,-24.5333,32.9833,2021-04-17 21:50:43,clear sky,60.51,75,2.19,8,0,0
515,Karatsu,JP,33.4425,129.9697,2021-04-17 21:50:43,few clouds,52.0,25,5.01,18,0,0
516,Bol'shoye Murashkino,RU,55.7826,44.7754,2021-04-17 21:50:44,clear sky,39.43,81,10.31,3,0,0
517,Maxixe,MZ,-23.8597,35.3472,2021-04-17 21:50:44,overcast clouds,67.77,70,6.17,98,0,0
518,Sydney,AU,-33.8679,151.2073,2021-04-17 21:50:18,few clouds,57.0,82,10.36,20,0,0
519,Rūdsar,IR,37.1376,50.288,2021-04-17 21:50:45,few clouds,57.2,88,2.3,20,0,0
520,Emba,KZ,48.8264,58.1442,2021-04-17 21:50:45,overcast clouds,53.74,74,6.78,98,0,0
521,San Jerónimo,PE,-11.9472,-75.2829,2021-04-17 21:50:46,scattered clouds,60.28,62,7.09,27,0,0
522,Mason City,US,43.1536,-93.201,2021-04-17 21:50:46,few clouds,60.8,23,14.97,20,0,0
523,Longhua,CN,23.6137,114.1919,2021-04-17 21:50:47,overcast clouds,70.84,80,1.19,100,0,0
524,Adré,TD,13.4667,22.2,2021-04-17 21:50:47,clear sky,77.05,9,9.44,7,0,0
525,Skibbereen,IE,51.55,-9.2667,2021-04-17 21:50:48,light rain,44.6,87,8.05,75,0,0
526,Khovd,MN,48.0056,91.6419,2021-04-17 21:50:48,broken clouds,43.27,40,7.83,68,0,0
527,Bintulu,MY,3.1667,113.0333,2021-04-17 21:50:49,light rain,75.2,94,4.61,40,0,0
528,Pahrump,US,36.2083,-115.9839,2021-04-17 21:50:49,clear sky,72.0,12,14.0,0,0,0
529,Usinsk,RU,65.9939,57.5281,2021-04-17 21:50:50,few clouds,8.47,84,11.36,17,0,0
530,Olinda,BR,-8.0089,-34.8553,2021-04-17 21:50:50,broken clouds,77.0,78,2.3,75,0,0
531,Tonj,SS,7.2737,28.6822,2021-04-17 21:50:50,broken clouds,88.11,34,3.04,82,0,0
532,La Victoria,VE,10.2184,-67.3302,2021-04-17 21:50:51,scattered clouds,89.6,62,5.75,40,0,0
533,Port Pirie,AU,-33.1833,138.0167,2021-04-17 21:50:51,overcast clouds,55.4,94,3.44,90,0,0
534,Abu Samrah,SY,35.3029,37.1841,2021-04-17 21:50:52,overcast clouds,68.59,41,1.95,85,0,0
535,Zabul Province,AF,32.25,67.25,2021-04-17 21:50:52,clear sky,56.17,26,16.8,0,0,0
536,Dunmore Town,BS,25.5,-76.65,2021-04-17 21:50:52,clear sky,77.72,82,9.26,3,0,0
537,Governador Valadares,BR,-18.8511,-41.9494,2021-04-17 21:50:53,few clouds,72.77,66,2.73,20,0,0
538,Houma,US,29.5958,-90.7195,2021-04-17 21:50:54,moderate rain,64.99,94,10.36,90,0,0
539,Elizabeth City,US,36.2946,-76.2511,2021-04-17 21:48:56,few clouds,66.2,42,9.22,20,0,0
540,Hambantota,LK,6.1241,81.1185,2021-04-17 21:50:54,scattered clouds,77.0,100,5.75,40,0,0
541,Mrakovo,RU,52.7161,56.6244,2021-04-17 21:50:55,clear sky,47.52,80,2.86,1,0,0
542,Ndendé,GA,-2.4008,11.3581,2021-04-17 21:50:55,light rain,70.38,95,2.77,100,0,0
543,Bambous Virieux,MU,-20.3428,57.7575,2021-04-17 21:50:56,broken clouds,78.01,88,8.05,75,0,0
544,Brejo Santo,BR,-7.4933,-38.9872,2021-04-17 21:50:56,scattered clouds,82.4,54,2.3,40,0,0
545,Haines Junction,CA,60.7522,-137.5108,2021-04-17 21:50:57,few clouds,55.4,24,5.75,13,0,0
546,Los Llanos de Aridane,ES,28.6585,-17.9182,2021-04-17 21:50:57,overcast clouds,68.0,73,14.97,90,0,0
547,Kirakira,SB,-10.4544,161.9205,2021-04-17 21:50:57,overcast clouds,84.81,67,7.11,92,0,0
548,Talcahuano,CL,-36.7167,-73.1167,2021-04-17 21:50:58,overcast clouds,59.0,82,10.36,90,0,0
549,Codó,BR,-4.4553,-43.8856,2021-04-17 21:47:51,overcast clouds,75.29,92,1.5,97,0,0
550,Alekseyevsk,RU,57.8406,108.3492,2021-04-17 21:50:58,broken clouds,10.78,96,3.29,68,0,0
551,Ponta Delgada,PT,37.7333,-25.6667,2021-04-17 21:50:59,broken clouds,62.6,100,8.05,75,0,0
552,Tiassalé,CI,5.8983,-4.8283,2021-04-17 21:50:59,overcast clouds,75.63,92,1.77,89,0,0
553,Mil'kovo,RU,54.7167,158.6167,2021-04-17 21:51:00,scattered clouds,32.36,70,3.29,30,0,0
554,Piedras Negras,MX,28.7,-100.5167,2021-04-17 21:51:00,few clouds,73.99,40,9.22,20,0,0
555,Miracema do Tocantins,BR,-9.5618,-48.3967,2021-04-17 21:51:00,heavy intensity rain,76.59,82,3.53,99,0,0
556,Almeirim,BR,-1.5233,-52.5817,2021-04-17 21:51:01,few clouds,75.69,94,2.75,18,0,0
557,Along,IN,28.1667,94.7667,2021-04-17 21:51:01,overcast clouds,65.01,87,1.05,97,0,0
558,Morant Bay,JM,17.8815,-76.4093,2021-04-17 21:51:02,few clouds,87.01,70,27.63,20,0,0
559,Siavonga,ZM,-16.5382,28.7088,2021-04-17 21:51:02,overcast clouds,69.51,66,7.11,97,0,0
560,Port Antonio,JM,18.18,-76.4612,2021-04-17 21:51:02,few clouds,87.01,70,27.63,20,0,0
561,Murdochville,CA,48.9583,-65.5006,2021-04-17 21:51:03,scattered clouds,35.6,80,14.97,38,0,0
562,Tete,MZ,-16.1564,33.5867,2021-04-17 21:51:03,broken clouds,73.4,64,9.22,75,0,0
563,Gerāsh,IR,27.6652,54.1371,2021-04-17 21:51:04,clear sky,71.6,26,4.61,0,0,0
564,Gravdal,NO,68.1214,13.5031,2021-04-17 21:51:04,scattered clouds,40.5,78,12.17,33,0,0
565,Nampa,US,43.5407,-116.5635,2021-04-17 21:50:56,clear sky,66.0,16,4.61,1,0,0
566,Shaunavon,CA,49.6501,-108.4181,2021-04-17 21:51:05,overcast clouds,64.4,13,14.97,99,0,0
567,São Miguel do Araguaia,BR,-13.275,-50.1628,2021-04-17 21:51:05,overcast clouds,78.1,68,1.32,99,0,0
568,Yar-Sale,RU,66.8333,70.8333,2021-04-17 21:51:06,broken clouds,-10.07,98,9.46,51,0,0
569,Tabou,CI,4.423,-7.3528,2021-04-17 21:51:06,light rain,77.74,86,6.71,100,0,0
570,Castle Rock,US,39.3722,-104.8561,2021-04-17 21:51:06,overcast clouds,39.99,64,5.01,100,0,0
571,Trojan,PL,53.7897,20.2404,2021-04-17 21:51:07,mist,45.0,100,2.3,84,0,0
572,Plettenberg Bay,ZA,-34.0527,23.3716,2021-04-17 21:51:07,scattered clouds,66.49,40,4.79,35,0,0
573,Syracuse,IT,37.0881,15.2792,2021-04-17 21:51:08,broken clouds,59.0,77,4.61,75,0,0
574,Tumut,AU,-35.3,148.2167,2021-04-17 21:51:08,clear sky,35.6,100,1.54,0,0,0
575,Lanquín,GT,15.5667,-89.9667,2021-04-17 21:51:09,scattered clouds,84.2,54,6.91,40,0,0
576,Snåase,NO,64.2457,12.3778,2021-04-17 21:51:09,clear sky,34.16,92,4.38,7,0,0
577,Smithers,CA,54.7804,-127.1743,2021-04-17 21:47:48,few clouds,66.2,32,4.61,20,0,0
578,Nefteyugansk,RU,61.0998,72.6035,2021-04-17 21:51:10,clear sky,12.2,73,8.95,0,0,0
579,Tsabong,BW,-26.0217,22.401,2021-04-17 21:51:10,scattered clouds,72.48,39,8.55,25,0,0
580,Mehamn,NO,71.0357,27.8492,2021-04-17 21:51:10,clear sky,35.02,85,12.71,7,0,0
581,Assiut,EG,27.181,31.1837,2021-04-17 21:51:11,clear sky,86.0,26,9.22,0,0,0
582,Hamilton,US,39.1834,-84.5333,2021-04-17 21:48:51,light rain,54.0,66,5.75,90,0,0
583,Abonnema,NG,4.7084,6.7931,2021-04-17 21:51:11,scattered clouds,80.6,89,5.1,40,0,0
584,Acaraú,BR,-2.8856,-40.12,2021-04-17 21:49:36,clear sky,78.93,83,13.18,9,0,0
585,Ratnagiri,IN,16.9833,73.3,2021-04-17 21:51:12,clear sky,80.28,77,8.93,0,0,0
586,Columbia,US,34.0007,-81.0348,2021-04-17 21:51:12,overcast clouds,73.4,35,4.61,90,0,0
587,Oneida,US,43.2001,-75.4663,2021-04-17 21:51:13,overcast clouds,48.99,76,10.36,90,0,0
588,Jinji,CN,23.2281,110.8261,2021-04-17 21:51:13,overcast clouds,68.65,95,4.09,100,0,0
589,Grand Forks,US,47.9417,-97.4337,2021-04-17 21:49:00,clear sky,60.8,26,13.8,1,0,0
590,Aktash,RU,50.3,87.7333,2021-04-17 21:51:14,scattered clouds,22.21,90,3.49,48,0,0
591,Georgiyevka,KZ,43.0369,74.7114,2021-04-17 21:51:14,scattered clouds,46.4,87,4.47,45,0,0
592,Lunca Corbului,RO,44.7,24.75,2021-04-17 21:51:15,overcast clouds,45.21,80,8.81,99,0,0
593,Janaúba,BR,-15.8025,-43.3089,2021-04-17 21:51:15,scattered clouds,78.82,36,3.47,47,0,0
594,Warrington,GB,53.3925,-2.5802,2021-04-17 21:51:16,clear sky,50.0,76,5.75,0,0,0
595,Palana,RU,59.1167,159.9667,2021-04-17 21:51:16,broken clouds,26.8,87,13.09,65,0,0
596,Sirte,LY,31.2089,16.5887,2021-04-17 21:51:16,overcast clouds,63.41,83,10.47,100,0,0
597,Grand Baie,MU,-20.0182,57.5802,2021-04-17 21:49:17,light rain,78.01,87,1.01,41,0,0
598,Mālpur,IN,23.35,73.45,2021-04-17 21:51:17,clear sky,82.54,28,6.31,1,0,0
599,North Platte,US,41.1239,-100.7654,2021-04-17 21:47:53,overcast clouds,46.4,61,8.05,90,0,0
600,Teya,RU,60.3778,92.6267,2021-04-17 21:51:18,overcast clouds,19.08,88,8.43,100,0,0
601,Kiruna,SE,67.8557,20.2251,2021-04-17 21:51:18,scattered clouds,26.6,80,3.44,27,0,0
602,Reque,PE,-6.8656,-79.8178,2021-04-17 21:51:19,broken clouds,75.2,60,23.02,75,0,0
603,Ekhabi,RU,53.5102,142.9671,2021-04-17 21:51:19,overcast clouds,33.26,99,6.85,100,0,0
604,Haileybury,CA,47.449,-79.6373,2021-04-17 21:51:20,clear sky,55.4,44,5.75,1,0,0
605,Maicao,CO,11.3832,-72.2432,2021-04-17 21:47:54,overcast clouds,87.31,56,13.42,99,0,0
606,São Félix do Xingu,BR,-6.6447,-51.995,2021-04-17 21:51:20,overcast clouds,72.41,96,1.39,94,0,0
607,Mana,GF,5.6592,-53.7767,2021-04-17 21:51:21,overcast clouds,78.57,78,11.63,97,0,0
608,Isangel,VU,-19.55,169.2667,2021-04-17 21:51:21,broken clouds,79.29,81,12.53,83,0,0
609,Kapuskasing,CA,49.4169,-82.4331,2021-04-17 21:51:22,overcast clouds,50.0,43,5.75,100,0,0
610,Palmer,US,42.1584,-72.3287,2021-04-17 21:51:22,broken clouds,48.2,53,9.22,75,0,0
611,Igrim,RU,63.1906,64.4162,2021-04-17 21:51:23,overcast clouds,13.14,84,12.41,99,0,0
612,Tullahoma,US,35.362,-86.2094,2021-04-17 21:51:23,broken clouds,64.4,51,9.22,75,0,0
613,Røros,NO,62.5747,11.3842,2021-04-17 21:51:23,few clouds,28.4,80,2.3,23,0,0
614,Aklavik,CA,68.2191,-135.0107,2021-04-17 21:51:24,few clouds,46.4,36,6.91,20,0,0
615,Vostok,RU,46.4856,135.8833,2021-04-17 21:51:24,few clouds,37.06,57,3.06,23,0,0
616,Westport,US,41.1415,-73.3579,2021-04-17 21:51:25,overcast clouds,53.01,57,5.03,95,0,0
617,Bibbiena,IT,43.6965,11.8135,2021-04-17 21:51:25,broken clouds,46.0,75,14.0,75,0,0
618,Ambon City,ID,-3.6954,128.1814,2021-04-17 21:51:25,scattered clouds,77.0,88,9.22,40,0,0
619,Goma,CD,-1.6792,29.2228,2021-04-17 21:51:26,light rain,64.4,88,3.44,75,0,0
620,Olafsvik,IS,64.8945,-23.7142,2021-04-17 21:51:26,light rain,36.41,78,10.98,100,0,0
621,Yablochnyy,RU,47.1661,142.0661,2021-04-17 21:51:27,mist,41.0,100,4.47,90,0,0
622,Slave Lake,CA,55.2834,-114.769,2021-04-17 21:50:08,overcast clouds,51.8,40,6.91,90,0,0
623,Charter Township of Clinton,US,42.587,-82.9199,2021-04-17 21:51:27,broken clouds,57.0,62,10.36,75,0,0
624,Myre,NO,69.1036,15.9492,2021-04-17 21:51:28,clear sky,36.0,75,9.22,9,0,0
625,Münster,DE,51.9624,7.6257,2021-04-17 21:51:28,clear sky,46.0,65,5.75,0,0,0
626,Gaoual,GN,11.75,-13.2,2021-04-17 21:51:28,scattered clouds,86.23,46,9.64,43,0,0
627,Kasongo,CD,-4.45,26.6667,2021-04-17 21:51:29,light rain,69.42,95,2.71,99,0,0
628,Lata,PT,40.1629,-8.3327,2021-04-17 21:51:29,broken clouds,55.0,74,4.0,57,0,0
629,Schattdorf,CH,46.8655,8.6547,2021-04-17 21:51:30,broken clouds,44.6,57,8.05,75,0,0
630,Churapcha,RU,62.0025,132.4325,2021-04-17 21:51:30,overcast clouds,22.42,82,9.08,99,0,0
631,Gannan,CN,47.9147,123.5031,2021-04-17 21:51:30,clear sky,38.95,50,5.88,0,0,0
632,Upata,VE,8.0086,-62.3989,2021-04-17 21:51:31,broken clouds,90.0,57,5.01,83,0,0
633,Chapleau,CA,47.8405,-83.4034,2021-04-17 21:51:31,scattered clouds,51.8,40,9.22,40,0,0
634,Karakulino,RU,56.012,53.7067,2021-04-17 21:51:32,clear sky,39.76,69,4.88,0,0,0
635,Nanning,CN,22.8167,108.3167,2021-04-17 21:51:32,overcast clouds,64.4,94,4.47,90,0,0
636,Beshpagir,RU,45.0217,42.3808,2021-04-17 21:51:33,moderate rain,46.4,93,4.47,40,0,0
637,Port Blair,IN,11.6667,92.75,2021-04-17 21:51:33,broken clouds,80.37,75,4.63,59,0,0
638,Bonthe,SL,7.5264,-12.505,2021-04-17 21:51:34,overcast clouds,79.07,80,3.02,100,0,0
639,Takāb,IR,36.4009,47.1133,2021-04-17 21:51:34,clear sky,53.13,39,1.5,0,0,0
640,Kodinsk,RU,58.6881,99.1844,2021-04-17 21:51:34,broken clouds,6.71,97,3.09,69,0,0
641,Culebra,PR,18.303,-65.301,2021-04-17 21:51:35,clear sky,84.2,65,9.22,1,0,0
642,Spirovo,RU,57.419,34.9766,2021-04-17 21:51:35,broken clouds,42.64,69,8.97,57,0,0
643,Naumburg,DE,51.15,11.8167,2021-04-17 21:51:36,overcast clouds,43.0,89,4.0,100,0,0
644,Mankato,US,44.1636,-93.9994,2021-04-17 21:51:36,broken clouds,55.4,38,12.66,75,0,0
645,Tazovsky,RU,67.4667,78.7,2021-04-17 21:51:37,overcast clouds,-9.54,100,6.53,100,0,0
646,Apac,UG,1.9756,32.5386,2021-04-17 21:51:37,light rain,68.59,87,4.0,100,0,0
647,Yerbogachën,RU,61.2767,108.0108,2021-04-17 21:51:37,scattered clouds,4.23,90,9.33,46,0,0
648,Kholtoson,RU,50.2981,103.3097,2021-04-17 21:51:38,scattered clouds,28.72,93,4.07,37,0,0
649,Salinas,US,36.6777,-121.6555,2021-04-17 21:48:27,clear sky,62.6,55,11.5,1,0,0
650,Yangjiang,CN,21.85,111.9667,2021-04-17 21:51:38,overcast clouds,72.64,88,9.35,96,0,0
651,Lindi,TZ,-10.0,39.7167,2021-04-17 21:51:39,scattered clouds,77.0,83,19.57,40,0,0
652,Coxim,BR,-18.5067,-54.76,2021-04-17 21:51:39,broken clouds,78.6,59,6.11,78,0,0
653,Dalby,AU,-27.1833,151.2667,2021-04-17 21:51:40,overcast clouds,53.6,100,5.75,90,0,0
654,Qaqortoq,GL,60.7167,-46.0333,2021-04-17 21:51:40,clear sky,28.4,34,11.5,0,0,0
655,Boa Vista,BR,2.8197,-60.6733,2021-04-17 21:51:41,scattered clouds,87.8,51,8.05,40,0,0
656,Inta,RU,66.0317,60.1659,2021-04-17 21:51:41,few clouds,6.24,89,10.11,13,0,0
657,Sawākin,SD,19.1059,37.3321,2021-04-17 21:51:41,clear sky,78.85,82,9.6,1,0,0
658,Byron Bay,AU,-28.65,153.6167,2021-04-17 21:51:42,overcast clouds,60.01,82,12.66,91,0,0
659,Cuamba,MZ,-14.8031,36.5372,2021-04-17 21:51:42,overcast clouds,65.12,92,6.67,97,0,0
660,George Town,MY,5.4112,100.3354,2021-04-17 21:47:53,few clouds,80.6,89,4.61,20,0,0
661,Ulvik,NO,60.5672,6.9187,2021-04-17 21:51:43,clear sky,37.0,80,1.99,9,0,0
662,San Juan,AR,-31.5375,-68.5364,2021-04-17 21:50:39,few clouds,80.19,41,11.12,14,0,0
663,Petra,JO,30.3222,35.4793,2021-04-17 21:50:38,clear sky,70.18,21,9.69,2,0,0
664,Tegul'det,RU,57.3064,88.1667,2021-04-17 21:51:44,overcast clouds,24.4,79,9.42,100,0,0
665,Monrovia,LR,6.3005,-10.7969,2021-04-17 21:48:31,broken clouds,78.8,94,4.7,75,0,0
666,Nieuw Amsterdam,SR,5.8833,-55.0833,2021-04-17 21:51:44,scattered clouds,84.2,70,16.11,40,0,0
667,Riyadh,SA,24.6877,46.7219,2021-04-17 21:46:57,clear sky,77.0,23,5.75,0,0,0
668,Kamenka,RU,51.3223,42.7678,2021-04-17 21:51:45,clear sky,42.98,86,2.75,1,0,0
669,Nelson Bay,AU,-32.7167,152.15,2021-04-17 21:51:45,overcast clouds,54.0,100,12.66,90,0,0
670,Alexander City,US,32.944,-85.9539,2021-04-17 21:51:46,broken clouds,71.6,46,11.5,75,0,0
671,Jacareacanga,BR,-6.2222,-57.7528,2021-04-17 21:49:29,moderate rain,72.7,98,0.94,100,0,0
672,Dhenkānāl,IN,20.6667,85.6,2021-04-17 21:51:46,haze,80.6,89,9.22,20,0,0
673,Khasan,RU,42.4308,130.6434,2021-04-17 21:51:47,broken clouds,43.5,62,14.52,72,0,0
674,Bathsheba,BB,13.2167,-59.5167,2021-04-17 21:51:47,few clouds,82.4,57,18.41,20,0,0
675,Cangzhou,CN,38.3167,116.8667,2021-04-17 21:51:47,clear sky,45.79,21,7.67,0,0,0
676,Harper,LR,4.375,-7.7169,2021-04-17 21:51:48,light rain,78.03,85,7.11,100,0,0
677,Palauig,PH,15.435,119.9045,2021-04-17 21:51:48,overcast clouds,80.02,74,5.95,100,0,0
678,Fujin,CN,47.26,132.0322,2021-04-17 21:51:49,clear sky,40.77,79,3.06,8,0,0
679,Laguna,US,38.421,-121.4238,2021-04-17 21:51:39,clear sky,88.0,10,8.05,1,0,0
680,Dingle,PH,10.9995,122.6711,2021-04-17 21:51:49,moderate rain,76.14,79,8.39,100,0,0
681,Altagracia de Orituco,VE,9.8601,-66.3814,2021-04-17 21:51:50,few clouds,88.07,40,5.91,21,0,0
682,Cairns,AU,-16.9167,145.7667,2021-04-17 21:51:50,scattered clouds,80.01,73,11.5,29,0,0
683,Mendi,PG,-6.1761,143.6513,2021-04-17 21:51:51,overcast clouds,57.83,94,2.84,100,0,0
684,Pacifica,US,37.6138,-122.4869,2021-04-17 21:51:51,few clouds,60.8,59,24.16,20,0,0
685,Linjiang,CN,41.8069,126.9078,2021-04-17 21:51:51,scattered clouds,35.64,81,1.99,26,0,0
686,Zapolyarnyy,RU,69.4154,30.8136,2021-04-17 21:51:52,overcast clouds,32.0,100,3.44,100,0,0
687,Mareeba,AU,-17.0,145.4333,2021-04-17 21:51:52,scattered clouds,80.01,73,11.5,29,0,0
688,Imeni Poliny Osipenko,RU,52.4201,136.4853,2021-04-17 21:51:53,scattered clouds,37.31,90,6.82,30,0,0
689,Elko,US,41.0002,-115.5012,2021-04-17 21:51:53,clear sky,59.0,23,7.0,0,0,0
690,Sept-Îles,CA,50.2001,-66.3821,2021-04-17 21:51:54,few clouds,39.0,60,17.27,20,0,0
691,Gandajika,CD,-6.75,23.95,2021-04-17 21:51:55,few clouds,67.55,95,4.29,19,0,0
692,Ashland,US,40.8167,-82.2665,2021-04-17 21:51:55,overcast clouds,54.0,69,9.4,100,0,0
693,Mtinko,TZ,-4.55,34.85,2021-04-17 21:49:13,scattered clouds,60.35,89,11.01,32,0,0
694,Broken Hill,AU,-31.95,141.4333,2021-04-17 21:51:56,clear sky,44.6,76,4.61,0,0,0
695,Ullapool,GB,57.8987,-5.1604,2021-04-17 21:51:56,overcast clouds,44.01,71,1.01,100,0,0
696,Ikongo,MG,-21.8833,47.4333,2021-04-17 21:51:57,overcast clouds,63.16,75,4.07,99,0,0
697,Korem,ET,12.5058,39.5228,2021-04-17 21:51:57,light rain,56.73,63,0.78,43,0,0
698,Polyanka,UA,50.2584,27.6881,2021-04-17 21:51:57,overcast clouds,38.86,95,5.48,91,0,0
699,Terrace,CA,54.5163,-128.6035,2021-04-17 21:48:07,clear sky,64.4,36,4.61,1,0,0
700,Izvestkovyy,RU,48.9833,131.55,2021-04-17 21:51:58,scattered clouds,40.53,77,2.82,32,0,0
701,Sabang,ID,5.8933,95.3214,2021-04-17 21:51:58,overcast clouds,82.94,73,10.67,98,0,0
702,Marawi,PH,7.9986,124.2928,2021-04-17 21:51:59,moderate rain,75.99,93,5.01,100,0,0
703,Senneterre,CA,48.3835,-77.2328,2021-04-17 21:51:59,broken clouds,53.6,47,6.91,75,0,0
704,Ferme-Neuve,CA,46.7001,-75.4493,2021-04-17 21:52:00,overcast clouds,57.2,38,4.61,100,0,0
705,Sinnamary,GF,5.3833,-52.95,2021-04-17 21:52:00,overcast clouds,78.67,80,12.75,87,0,0
706,Jiuquan,CN,39.7432,98.5174,2021-04-17 21:52:01,overcast clouds,49.35,16,2.64,97,0,0
707,Guiratinga,BR,-16.3494,-53.7583,2021-04-17 21:52:02,broken clouds,73.6,77,5.48,68,0,0
708,Jacqueville,CI,5.2052,-4.4146,2021-04-17 21:52:02,few clouds,82.4,83,8.05,20,0,0
709,French Harbor,HN,16.35,-86.4333,2021-04-17 21:52:02,clear sky,89.6,70,17.27,0,0,0
710,Auki,SB,-8.7676,160.7034,2021-04-17 21:52:03,broken clouds,81.27,80,2.21,82,0,0
711,Xining,CN,36.6167,101.7667,2021-04-17 21:47:40,clear sky,39.27,46,3.04,0,0,0
712,Turinskaya Sloboda,RU,57.6232,64.3858,2021-04-17 21:52:03,broken clouds,38.41,73,10.67,82,0,0
713,Volchanets,RU,42.9131,132.7469,2021-04-17 21:52:04,overcast clouds,44.02,57,9.66,91,0,0
714,Batemans Bay,AU,-35.7167,150.1833,2021-04-17 21:52:04,scattered clouds,54.0,86,1.01,32,0,0
715,Sikeston,US,36.8767,-89.5879,2021-04-17 21:52:05,broken clouds,59.0,58,4.61,75,0,0
716,Mahon,ES,39.8885,4.2658,2021-04-17 21:52:05,scattered clouds,46.4,87,9.22,40,0,0
717,Campos Belos,BR,-13.0367,-46.7717,2021-04-17 21:52:05,overcast clouds,75.58,48,1.79,90,0,0
718,Vung Tau,VN,10.346,107.0843,2021-04-17 21:52:06,broken clouds,80.26,71,7.05,71,0,0
719,Zhangaözen,KZ,43.3,52.8,2021-04-17 21:52:06,overcast clouds,62.35,28,3.33,100,0,0
720,Mishan,CN,45.55,131.8833,2021-04-17 21:52:07,few clouds,41.29,77,7.65,22,0,0
721,Güicán,CO,6.4618,-72.4113,2021-04-17 21:52:07,overcast clouds,53.19,89,3.44,99,0,0
722,Gorgan,IR,36.8387,54.4348,2021-04-17 21:52:08,clear sky,53.6,87,4.61,0,0,0
723,Pangai,TO,-19.8,-174.35,2021-04-17 21:52:08,scattered clouds,80.6,65,3.44,40,0,0
724,Rondonópolis,BR,-16.4708,-54.6356,2021-04-17 21:50:20,moderate rain,78.01,65,2.39,68,0,0
725,Gushikawa,JP,26.3544,127.8686,2021-04-17 21:52:09,scattered clouds,64.4,63,13.8,40,0,0
726,Biggar,GB,55.6167,-3.5167,2021-04-17 21:52:09,clear sky,45.0,93,1.14,0,0,0
727,Camacha,PT,33.0833,-16.3333,2021-04-17 21:52:10,few clouds,60.8,77,11.5,20,0,0
728,Gazojak,TM,41.1875,61.4036,2021-04-17 21:52:10,clear sky,65.34,22,8.5,3,0,0
729,Acapulco de Juárez,MX,16.8634,-99.8901,2021-04-17 21:52:11,few clouds,84.2,65,9.22,20,0,0
730,Tari,NG,12.4086,4.4914,2021-04-17 21:52:11,few clouds,88.79,21,1.32,23,0,0
731,Zalţan,LY,32.947,11.8665,2021-04-17 21:52:11,few clouds,60.26,74,8.9,14,0,0
732,Bouaflé,CI,6.9904,-5.7442,2021-04-17 21:52:12,clear sky,77.0,94,4.61,0,0,0
733,Youkounkoun,GN,12.5333,-13.1333,2021-04-17 21:52:12,scattered clouds,92.62,20,3.33,28,0,0
734,Belance,PH,16.1833,121.25,2021-04-17 21:52:13,overcast clouds,65.43,91,3.78,100,0,0
735,Port Macquarie,AU,-31.4333,152.9167,2021-04-17 21:52:13,overcast clouds,59.0,92,1.99,91,0,0
736,Shimokizukuri,JP,40.8061,140.3861,2021-04-17 21:52:14,overcast clouds,54.0,89,4.0,100,0,0
737,Boaco,NI,12.4722,-85.6586,2021-04-17 21:52:14,scattered clouds,95.0,46,4.61,40,0,0
738,Whitehorse,CA,60.7161,-135.0538,2021-04-17 21:52:15,few clouds,51.8,32,8.05,20,0,0
739,Boyolangu,ID,-8.1181,111.8935,2021-04-17 21:52:15,broken clouds,73.83,90,0.49,72,0,0
740,Yangi Marg`ilon,UZ,40.4272,71.7189,2021-04-17 21:52:15,overcast clouds,55.4,54,4.61,99,0,0
741,Cooma,AU,-36.2333,149.1333,2021-04-17 21:52:16,overcast clouds,42.8,93,6.91,90,0,0
742,Roald,NO,62.5833,6.1333,2021-04-17 21:52:16,clear sky,43.0,75,5.75,0,0,0
743,Aswān,EG,24.0934,32.907,2021-04-17 21:52:17,clear sky,79.86,19,9.53,0,0,0
744,Bangolo,CI,7.0069,-7.475,2021-04-17 21:52:17,overcast clouds,69.33,95,0.25,100,0,0
745,Bhachāu,IN,23.2833,70.35,2021-04-17 21:52:18,clear sky,82.17,54,7.78,0,0,0
746,Marsh Harbour,BS,26.5412,-77.0636,2021-04-17 21:52:18,clear sky,78.82,72,13.22,9,0,0
747,Cervo,ES,43.6702,-7.4101,2021-04-17 21:52:18,clear sky,51.01,74,1.01,1,0,0
748,Agüimes,ES,27.9054,-15.4461,2021-04-17 21:52:19,scattered clouds,68.0,73,21.85,40,0,0
749,Marolambo,MG,-20.05,48.1167,2021-04-17 21:52:19,overcast clouds,63.39,93,3.0,100,0,0
750,Shakiso,ET,5.75,38.9167,2021-04-17 21:52:20,overcast clouds,57.65,97,2.86,97,0,0
751,Huai Thalaeng,TH,14.997,102.6475,2021-04-17 21:52:20,overcast clouds,84.0,100,2.75,87,0,0
752,Amahai,ID,-3.3333,128.9167,2021-04-17 21:52:21,broken clouds,82.0,93,2.44,76,0,0
753,Morón,AR,-34.6534,-58.6198,2021-04-17 21:52:21,overcast clouds,73.0,76,5.01,100,0,0
754,Safi,MA,32.2994,-9.2372,2021-04-17 21:52:22,scattered clouds,62.91,87,16.08,37,0,0
755,Kayasula,RU,44.325,45.0,2021-04-17 21:52:22,overcast clouds,53.2,80,6.42,100,0,0
756,Lukang,TW,24.0567,120.4352,2021-04-17 21:52:22,broken clouds,73.0,68,4.61,75,0,0
757,Dunedin,NZ,-45.8742,170.5036,2021-04-17 21:52:23,overcast clouds,52.68,59,3.94,100,0,0
758,Banda Aceh,ID,5.5577,95.3222,2021-04-17 21:52:23,broken clouds,79.38,79,7.45,58,0,0
759,Troitskoye,RU,52.9821,84.6757,2021-04-17 21:52:24,broken clouds,30.13,88,4.25,79,0,0
760,Kita,ML,13.0349,-9.4895,2021-04-17 21:52:24,overcast clouds,87.06,42,13.18,86,0,0
761,Ossora,RU,59.2353,163.0719,2021-04-17 21:52:24,clear sky,26.08,77,5.66,4,0,0
762,Buriti dos Lopes,BR,-3.175,-41.8669,2021-04-17 21:52:25,few clouds,76.15,92,6.06,24,0,0
763,Hirado,JP,33.3597,129.5531,2021-04-17 21:52:25,broken clouds,52.0,50,14.97,75,0,0
764,Harlingen,US,26.1906,-97.6961,2021-04-17 21:48:29,overcast clouds,59.0,100,18.41,90,0,0
765,Ormara,PK,25.2088,64.6357,2021-04-17 21:52:26,clear sky,79.29,81,8.75,6,0,0
766,Presidencia Roque Sáenz Peña,AR,-26.7852,-60.4388,2021-04-17 21:52:26,overcast clouds,80.01,67,1.01,97,0,0
767,Luwuk,ID,-0.9516,122.7875,2021-04-17 21:52:27,broken clouds,75.67,81,4.09,70,0,0
768,Tapes,BR,-30.6733,-51.3958,2021-04-17 21:52:27,few clouds,69.12,88,9.26,22,0,0
769,Mnogovershinnyy,RU,53.9353,139.9242,2021-04-17 21:52:27,broken clouds,30.79,97,3.31,52,0,0
770,Muroto-misakicho,JP,33.2833,134.15,2021-04-17 21:52:28,broken clouds,51.8,62,4.61,75,0,0
771,Bilma,NE,18.6853,12.9164,2021-04-17 21:52:28,overcast clouds,87.51,7,8.34,100,0,0
772,Kysyl-Syr,RU,63.8986,122.7617,2021-04-17 21:52:29,light snow,12.63,92,12.3,100,0,0
773,Tomohon,ID,1.3346,124.8392,2021-04-17 21:52:29,few clouds,77.0,94,2.3,20,0,0
774,Yala,TH,6.3333,101.25,2021-04-17 21:52:30,overcast clouds,72.61,95,2.57,100,0,0
775,Kampong Thom,KH,12.7111,104.8887,2021-04-17 21:52:30,overcast clouds,77.97,84,3.67,85,0,0
776,Limbdi,IN,22.5667,71.8,2021-04-17 21:52:30,clear sky,84.38,51,6.44,0,0,0
777,Manggar,ID,-2.8833,108.2667,2021-04-17 21:52:31,overcast clouds,78.04,82,4.88,100,0,0
778,Tergnier,FR,49.6561,3.3011,2021-04-17 21:52:31,clear sky,39.99,87,10.36,0,0,0
779,Bariloche,AR,-41.1456,-71.3082,2021-04-17 21:50:25,scattered clouds,62.6,31,8.05,40,0,0
780,Inhambane,MZ,-23.865,35.3833,2021-04-17 21:51:23,overcast clouds,68.85,68,7.52,97,0,0
781,Limbang,MY,4.75,115.0,2021-04-17 21:52:32,broken clouds,77.0,100,2.3,75,0,0
782,Mitsamiouli,KM,-11.3847,43.2844,2021-04-17 21:52:32,light rain,80.91,76,11.21,100,0,0
783,Mokrousovo,RU,55.8103,66.7653,2021-04-17 21:52:33,scattered clouds,37.99,83,8.05,31,0,0
784,Sarkand,KZ,45.41,79.9186,2021-04-17 21:52:33,scattered clouds,50.38,54,6.62,46,0,0
785,Fougamou,GA,-1.2154,10.5838,2021-04-17 21:52:34,overcast clouds,76.05,93,1.41,100,0,0
786,Yankton,US,42.8711,-97.3973,2021-04-17 21:50:57,overcast clouds,51.8,46,16.11,90,0,0
787,Marabba,SD,12.35,32.1833,2021-04-17 21:52:34,clear sky,87.13,8,8.48,2,0,0
788,Thanh Hoa,VN,19.8,105.7667,2021-04-17 21:51:57,overcast clouds,71.91,91,3.09,100,0,0
789,Tecpan,GT,14.7623,-90.9947,2021-04-17 21:52:35,broken clouds,78.8,57,20.71,75,0,0
790,Hunterville,NZ,-39.9333,175.5667,2021-04-17 21:52:35,overcast clouds,60.01,75,4.0,100,0,0
791,Ayagoz,KZ,47.9714,80.4392,2021-04-17 21:52:36,broken clouds,44.08,79,6.22,52,0,0
792,Zarasai,LT,55.7333,26.25,2021-04-17 21:52:36,scattered clouds,45.18,93,4.61,43,0,0
793,Litovko,RU,49.2361,135.1742,2021-04-17 21:52:37,broken clouds,38.32,93,2.95,69,0,0
794,Rio Grande,BR,-32.035,-52.0986,2021-04-17 21:52:38,few clouds,70.0,89,9.55,15,0,0
795,Tiarei,PF,-17.5333,-149.3333,2021-04-17 21:52:38,few clouds,87.8,66,12.66,20,0,0
796,Lazurne,UA,46.084,32.5295,2021-04-17 21:52:39,overcast clouds,44.01,100,3.0,93,0,0
797,Mocuba,MZ,-16.8392,36.9856,2021-04-17 21:52:39,broken clouds,64.35,96,3.94,84,0,0
798,Mananjary,MG,-21.2167,48.3333,2021-04-17 21:52:39,light rain,71.24,71,10.89,100,0,0
799,Soyo,AO,-6.1349,12.3689,2021-04-17 21:52:40,broken clouds,79.97,89,4.23,82,0,0
800,Kouroussa,GN,10.65,-9.8833,2021-04-17 21:52:40,overcast clouds,76.53,76,7.76,100,0,0
801,Ponnāni,IN,10.767,75.9252,2021-04-17 21:50:52,light rain,77.0,88,2.3,20,0,0
802,Micomeseng,GQ,2.1462,10.6164,2021-04-17 21:52:41,light rain,70.63,98,2.48,96,0,0
803,Dubovyy Umët,RU,52.9763,50.2857,2021-04-17 21:52:41,clear sky,44.6,49,6.71,0,0,0
804,Trincomalee,LK,8.5711,81.2335,2021-04-17 21:52:42,overcast clouds,79.99,79,5.73,87,0,0
805,Villaviciosa,ES,43.4813,-5.4357,2021-04-17 21:52:42,clear sky,50.0,61,7.27,0,0,0
806,Mamlyutka,KZ,54.9375,68.5394,2021-04-17 21:52:43,scattered clouds,38.46,75,8.05,35,0,0
807,Yaypan,UZ,40.3758,70.8156,2021-04-17 21:52:43,overcast clouds,66.83,35,15.23,99,0,0
808,Umluj,SA,25.0213,37.2685,2021-04-17 21:52:44,clear sky,80.82,56,7.54,0,0,0
809,Lanxi,CN,29.2195,119.477,2021-04-17 21:52:44,overcast clouds,55.17,84,4.32,96,0,0
810,Namtsy,RU,62.7161,129.6658,2021-04-17 21:52:44,few clouds,23.0,68,6.71,20,0,0
811,Mazagão,BR,-0.115,-51.2894,2021-04-17 21:52:45,moderate rain,80.6,89,4.61,90,0,0
812,Kirkwood,US,38.5834,-90.4068,2021-04-17 21:52:05,broken clouds,60.8,51,6.91,75,0,0
813,Bambamarca,PE,-6.6833,-78.5333,2021-04-17 21:52:46,light rain,71.6,40,5.75,75,0,0
814,Paraty,BR,-23.2178,-44.7131,2021-04-17 21:52:46,scattered clouds,77.0,61,2.3,40,0,0
815,Āsosa,ET,10.0667,34.5333,2021-04-17 21:52:46,scattered clouds,72.45,14,2.91,46,0,0
816,Lucea,JM,18.451,-78.1736,2021-04-17 21:52:47,scattered clouds,84.2,74,18.41,40,0,0
817,El Rincón,HN,14.5833,-87.9333,2021-04-17 21:52:47,broken clouds,77.0,57,4.61,75,0,0
818,Sisimiut,GL,66.9395,-53.6735,2021-04-17 21:52:48,light snow,17.44,82,5.64,100,0,0
819,Hulan Ergi,CN,47.2042,123.6333,2021-04-17 21:52:48,clear sky,39.56,50,7.36,0,0,0
820,Panguna,PG,-6.3164,155.4848,2021-04-17 21:52:49,overcast clouds,77.32,72,1.72,95,0,0
821,Suntar,RU,62.1444,117.6319,2021-04-17 21:52:49,overcast clouds,12.15,80,12.44,100,0,0
822,Chamba,IN,32.5667,76.1333,2021-04-17 21:52:49,overcast clouds,57.79,81,7.34,100,0,0
823,Lethem,GY,3.3803,-59.7968,2021-04-17 21:52:50,broken clouds,83.08,61,11.61,79,0,0
824,Soledade,BR,-28.8183,-52.5103,2021-04-17 21:52:50,few clouds,60.04,96,6.4,14,0,0
825,Diego de Almagro,CL,-26.3667,-70.05,2021-04-17 21:52:51,clear sky,70.12,39,6.17,0,0,0
826,Shubarshi,KZ,48.5872,57.1869,2021-04-17 21:52:51,broken clouds,53.24,74,6.44,56,0,0
827,Luján,AR,-34.5703,-59.105,2021-04-17 21:52:52,overcast clouds,73.0,72,7.43,100,0,0
828,Chadiza,ZM,-14.0678,32.4392,2021-04-17 21:52:52,overcast clouds,59.41,89,8.84,99,0,0
829,Karasjok,NO,69.4719,25.5112,2021-04-17 21:52:53,overcast clouds,32.0,80,2.3,90,0,0
830,Pierre,US,44.3683,-100.351,2021-04-17 21:52:53,broken clouds,59.0,37,9.22,75,0,0
831,Burns Lake,CA,54.2331,-125.7533,2021-04-17 21:47:54,few clouds,69.8,23,3.44,20,0,0
832,Oddur,SO,4.1213,43.8894,2021-04-17 21:52:54,overcast clouds,74.1,78,9.08,90,0,0
833,Mudgee,AU,-32.5943,149.5871,2021-04-17 21:52:54,overcast clouds,44.6,100,5.75,90,0,0
834,Kamenskiy,RU,50.8855,45.488,2021-04-17 21:52:54,broken clouds,44.02,89,8.55,56,0,0
835,Great Bend,US,38.3645,-98.7648,2021-04-17 21:52:55,overcast clouds,51.8,58,14.97,90,0,0
836,Kushmurun,KZ,52.4503,64.6311,2021-04-17 21:52:56,clear sky,46.89,81,1.39,9,0,0
837,Tshikapa,CD,-6.4167,20.8,2021-04-17 21:52:56,overcast clouds,71.67,93,2.98,86,0,0
838,Baykit,RU,61.67,96.37,2021-04-17 21:52:56,light snow,13.62,95,3.94,100,0,0
839,Uren',RU,57.4552,45.7852,2021-04-17 21:52:57,clear sky,36.63,88,5.61,7,0,0
840,Itoman,JP,26.1247,127.6694,2021-04-17 21:52:57,broken clouds,64.4,59,23.02,75,0,0
841,Manokwari,ID,-0.8667,134.0833,2021-04-17 21:52:58,overcast clouds,78.17,79,1.92,92,0,0
842,Arrondissement d'Ajaccio,FR,42.0,8.9167,2021-04-17 21:52:58,broken clouds,48.2,93,4.61,75,0,0
843,Ucluelet,CA,48.9329,-125.5528,2021-04-17 21:52:59,clear sky,60.8,59,6.91,1,0,0
844,Fare,PF,-16.7,-151.0167,2021-04-17 21:52:59,light rain,81.61,75,9.75,6,0,0
845,Nālūt,LY,30.3333,10.85,2021-04-17 21:53:00,overcast clouds,69.13,43,11.68,100,0,0
846,Ginir,ET,7.1333,40.7,2021-04-17 21:53:00,light rain,58.53,83,3.8,91,0,0
847,Cassilândia,BR,-19.1133,-51.7342,2021-04-17 21:53:01,broken clouds,68.95,93,6.62,73,0,0
848,Nortelândia,BR,-14.4547,-56.8028,2021-04-17 21:53:01,overcast clouds,80.15,72,3.69,94,0,0
849,Shimoda,JP,34.6667,138.95,2021-04-17 21:53:01,broken clouds,61.0,57,1.99,71,0,0
850,Darasun,RU,51.6667,114.0,2021-04-17 21:53:02,scattered clouds,24.8,80,2.24,29,0,0
851,Nampula,MZ,-15.1165,39.2666,2021-04-17 21:53:02,few clouds,68.0,83,8.05,20,0,0
852,Saryg-Sep,RU,51.5,95.6,2021-04-17 21:53:03,broken clouds,32.59,75,2.77,72,0,0
853,Luanda,AO,-8.8368,13.2343,2021-04-17 21:48:59,broken clouds,79.93,84,6.22,76,0,0
854,Valerianovsk,RU,58.76,59.5522,2021-04-17 21:53:03,broken clouds,37.76,79,10.51,68,0,0
855,Rohru,IN,31.2167,77.75,2021-04-17 21:53:04,broken clouds,47.3,81,3.91,83,0,0
856,Neenah,US,44.1858,-88.4626,2021-04-17 21:49:04,scattered clouds,57.0,14,8.05,40,0,0
857,Nhulunbuy,AU,-12.2333,136.7667,2021-04-17 21:53:04,broken clouds,82.4,61,10.36,75,0,0
858,Boli,CN,45.7667,130.5167,2021-04-17 21:53:05,clear sky,41.34,82,4.54,10,0,0
859,Dzaoudzi,YT,-12.7887,45.2699,2021-04-17 21:53:05,few clouds,82.4,74,13.8,20,0,0
860,Thai Binh,VN,20.45,106.3333,2021-04-17 21:53:06,broken clouds,73.4,88,3.44,75,0,0
861,Laas,IT,46.6166,10.7002,2021-04-17 21:53:06,clear sky,50.0,69,6.91,0,0,0
862,Poptún,GT,16.3311,-89.4169,2021-04-17 21:53:07,overcast clouds,93.13,34,6.49,90,0,0
863,Jalingo,NG,8.8833,11.3667,2021-04-17 21:53:07,overcast clouds,79.77,69,5.3,97,0,0
864,Kutum,SD,14.2,24.6667,2021-04-17 21:53:07,few clouds,72.88,11,9.1,15,0,0
865,Sungai Penuh,ID,-2.0833,101.3833,2021-04-17 21:53:08,overcast clouds,63.37,94,1.88,100,0,0
866,Simplício Mendes,BR,-7.8539,-41.9103,2021-04-17 21:53:09,overcast clouds,76.12,75,6.44,100,0,0
867,Workington,GB,54.6425,-3.5441,2021-04-17 21:53:09,overcast clouds,41.0,74,4.07,92,0,0
868,Micheweni,TZ,-4.9667,39.8333,2021-04-17 21:53:10,heavy intensity rain,78.3,88,11.81,100,0,0
869,Rodrigues Alves,BR,-7.738,-72.6509,2021-04-17 21:53:10,broken clouds,82.4,78,4.61,75,0,0
870,Bushehr,IR,28.9684,50.8385,2021-04-17 21:53:10,overcast clouds,69.8,83,4.61,100,0,0
871,High Level,CA,58.5169,-117.136,2021-04-17 21:53:11,broken clouds,41.0,93,2.3,75,0,0
872,Tingi,TZ,-11.3,35.0333,2021-04-17 21:53:11,few clouds,58.46,89,3.87,24,0,0
873,Andenes,NO,69.3143,16.1194,2021-04-17 21:53:12,few clouds,36.0,75,10.36,11,0,0
874,Vallenar,CL,-28.5708,-70.7581,2021-04-17 21:53:12,clear sky,74.25,46,5.77,0,0,0
875,Sassandra,CI,4.95,-6.0833,2021-04-17 21:53:13,overcast clouds,77.05,89,5.97,96,0,0
876,Northam,GB,51.0333,-4.2167,2021-04-17 21:53:13,overcast clouds,43.0,71,3.0,100,0,0
877,Makurdi,NG,7.7411,8.5121,2021-04-17 21:51:01,moderate rain,82.02,65,6.91,99,0,0
878,Walvis Bay,NA,-22.9575,14.5053,2021-04-17 21:53:14,overcast clouds,89.6,22,5.75,100,0,0
879,Kabelvåg,NO,68.2114,14.4817,2021-04-17 21:53:14,few clouds,36.0,69,7.96,12,0,0
880,Voh,NC,-20.9667,164.7,2021-04-17 21:53:15,scattered clouds,78.84,72,5.28,29,0,0
881,Gumia,IN,23.7833,85.8167,2021-04-17 21:53:15,scattered clouds,82.72,26,1.95,26,0,0
882,Aketi,CD,2.7388,23.7833,2021-04-17 21:53:15,overcast clouds,69.94,97,1.81,100,0,0
883,Inuvik,CA,68.3499,-133.7218,2021-04-17 21:53:16,broken clouds,46.4,39,8.05,81,0,0
884,Leshukonskoye,RU,64.8989,45.7622,2021-04-17 21:53:16,scattered clouds,27.32,82,7.47,27,0,0
885,Mpulungu,ZM,-8.7623,31.1141,2021-04-17 21:53:17,broken clouds,71.74,77,10.38,51,0,0
886,Samarai,PG,-10.6167,150.6667,2021-04-17 21:53:17,broken clouds,83.23,76,12.73,68,0,0
887,Emerald,AU,-23.5333,148.1667,2021-04-17 21:53:18,clear sky,63.0,72,10.36,0,0,0
888,Hanstholm,DK,57.1167,8.6167,2021-04-17 21:53:18,overcast clouds,45.0,48,10.89,95,0,0
889,Tondano,ID,1.3038,124.9112,2021-04-17 21:53:18,few clouds,77.0,94,2.3,20,0,0
890,Catuday,PH,16.2923,119.8062,2021-04-17 21:53:19,overcast clouds,78.87,77,4.12,100,0,0
891,Oleksandrivka,UA,46.8383,32.7612,2021-04-17 21:53:19,broken clouds,45.16,55,1.81,72,0,0
892,Hornepayne,CA,49.2138,-84.7705,2021-04-17 21:53:20,overcast clouds,43.79,44,6.15,100,0,0
893,Pāsighāt,IN,28.0667,95.3333,2021-04-17 21:53:20,overcast clouds,68.88,86,2.66,97,0,0
894,Sechura,PE,-5.5569,-80.8222,2021-04-17 21:53:20,overcast clouds,77.74,62,13.76,92,0,0
895,Kasane,BW,-17.8167,25.15,2021-04-17 21:53:21,scattered clouds,63.05,67,6.55,44,0,0
896,Portree,GB,57.4129,-6.1942,2021-04-17 21:53:21,overcast clouds,46.99,55,21.0,100,0,0
897,Cowra,AU,-33.8333,148.6833,2021-04-17 21:53:22,few clouds,45.0,84,1.61,14,0,0
898,Mashhad,IR,36.297,59.6062,2021-04-17 21:53:22,clear sky,55.4,67,4.61,0,0,0
899,Pokrovskoye,RU,47.4157,38.8971,2021-04-17 21:53:23,few clouds,45.0,76,7.0,19,0,0
900,Kallaste,EE,58.655,27.1592,2021-04-17 21:53:23,broken clouds,48.2,43,6.91,67,0,0
901,Santo Ângelo,BR,-28.2992,-54.2631,2021-04-17 21:53:23,clear sky,77.0,65,9.22,0,0,0
902,Zhigalovo,RU,54.8097,105.1578,2021-04-17 21:53:24,broken clouds,17.96,86,5.5,71,0,0
903,Eldorado,BR,-23.7869,-54.2836,2021-04-17 21:53:24,broken clouds,72.63,70,1.52,75,0,0
904,Dergachi,RU,51.2328,48.7659,2021-04-17 21:53:25,light rain,53.62,77,11.77,100,0,0
905,Songjianghe,CN,42.1859,127.479,2021-04-17 21:53:25,few clouds,31.42,79,2.06,24,0,0
906,Mpika,ZM,-11.8343,31.4529,2021-04-17 21:53:25,scattered clouds,56.88,93,11.88,38,0,0
907,Quelimane,MZ,-17.8786,36.8883,2021-04-17 21:53:26,broken clouds,75.2,69,5.75,75,0,0
908,Mosina,PL,52.2454,16.8471,2021-04-17 21:53:26,scattered clouds,45.0,93,1.14,40,0,0
909,Beyneu,KZ,45.3167,55.2,2021-04-17 21:53:23,broken clouds,62.58,34,2.93,84,0,0
910,Chauk,MM,20.8833,94.8167,2021-04-17 21:53:27,clear sky,81.19,52,4.83,6,0,0
911,Khanu Woralaksaburi,TH,16.0617,99.8606,2021-04-17 21:53:27,moderate rain,78.46,80,4.52,54,0,0
912,San Miguelito,PA,9.0333,-79.5,2021-04-17 21:53:28,scattered clouds,82.4,83,6.91,40,0,0
913,Yazman,PK,29.1212,71.7446,2021-04-17 21:53:28,clear sky,79.81,28,4.88,0,0,0
914,Tarbert,GB,55.8628,-5.4162,2021-04-17 21:53:29,overcast clouds,46.4,81,18.41,100,0,0
915,Goulouré,BF,12.2306,-1.9289,2021-04-17 21:53:30,overcast clouds,88.75,31,11.77,87,0,0
916,Senno,RU,59.5336,33.9167,2021-04-17 21:53:30,few clouds,39.07,87,6.29,15,0,0
917,Kroonstad,ZA,-27.6504,27.2349,2021-04-17 21:53:31,overcast clouds,54.66,63,3.62,90,0,0
918,La Serena,CL,-29.9078,-71.2542,2021-04-17 21:50:24,broken clouds,59.0,82,10.36,75,0,0
919,Hervey Bay,AU,-25.2986,152.8535,2021-04-17 21:53:32,few clouds,66.0,83,5.01,16,0,0
920,Bima,ID,-8.4667,118.7167,2021-04-17 21:53:32,broken clouds,74.19,94,3.42,54,0,0
921,Ciudad Bolivar,VE,8.1222,-63.5497,2021-04-17 21:53:33,broken clouds,93.06,33,16.37,78,0,0
922,Caconda,AO,-13.7333,15.0667,2021-04-17 21:53:33,broken clouds,62.17,71,1.81,75,0,0
923,Tupelo,US,34.2576,-88.7034,2021-04-17 21:53:34,overcast clouds,66.2,45,10.36,90,0,0
924,Neuquén,AR,-38.9516,-68.0591,2021-04-17 21:49:18,clear sky,71.6,37,6.91,0,0,0
925,Borovoy,RU,55.4333,86.0833,2021-04-17 21:53:34,clear sky,26.6,50,6.71,0,0,0
926,Väike-Maarja,EE,59.1264,26.25,2021-04-17 21:53:35,broken clouds,39.97,77,7.07,74,0,0
927,Kuito,AO,-12.3833,16.9333,2021-04-17 21:53:33,overcast clouds,63.07,74,3.15,94,0,0
928,Oudtshoorn,ZA,-33.5907,22.2014,2021-04-17 21:53:35,clear sky,57.2,72,3.44,0,0,0
929,Darlawn,IN,24.0167,92.9,2021-04-17 21:53:36,clear sky,60.19,89,2.75,3,0,0
930,Koulamoutou,GA,-1.1303,12.4736,2021-04-17 21:53:36,overcast clouds,69.78,94,0.69,100,0,0
931,Songyang,CN,34.4553,113.0281,2021-04-17 21:53:37,overcast clouds,49.71,49,4.85,94,0,0
932,Rincon,US,32.296,-81.2354,2021-04-17 21:53:37,broken clouds,75.2,53,10.36,75,0,0
933,Birao,CF,10.2849,22.7882,2021-04-17 21:53:38,overcast clouds,80.29,9,6.82,92,0,0
934,Majene,ID,-3.5403,118.9707,2021-04-17 21:53:38,scattered clouds,76.23,86,3.29,48,0,0
935,Saint Johnsbury,US,44.4192,-72.0151,2021-04-17 21:53:39,overcast clouds,42.01,70,8.05,90,0,0
936,Sochi,RU,43.6,39.7303,2021-04-17 21:49:06,overcast clouds,51.8,93,6.71,90,0,0
937,Pemberton,CA,50.3164,-122.8027,2021-04-17 21:53:40,scattered clouds,75.2,25,8.05,31,0,0
938,Sheridan,US,44.8333,-106.9173,2021-04-17 21:53:00,few clouds,57.2,26,14.97,20,0,0
939,Malakal,SS,9.5334,31.6605,2021-04-17 21:53:40,clear sky,89.4,10,4.92,7,0,0
940,Fomboni,KM,-12.28,43.7425,2021-04-17 21:53:41,overcast clouds,82.47,70,19.73,99,0,0
941,Issa,RU,53.8705,44.8578,2021-04-17 21:53:41,broken clouds,46.85,69,8.93,74,0,0
942,Solnechnyy,RU,50.7214,136.6319,2021-04-17 21:53:41,scattered clouds,37.83,82,2.57,27,0,0
943,Wana,PK,32.2989,69.5725,2021-04-17 21:53:42,clear sky,58.19,74,2.01,0,0,0
944,Japura,ID,-0.3167,102.35,2021-04-17 21:53:42,overcast clouds,70.9,98,2.51,98,0,0
945,Nyrob,RU,60.733,56.7202,2021-04-17 21:53:43,overcast clouds,31.41,83,11.21,95,0,0
946,Krasnokamensk,RU,50.0979,118.0369,2021-04-17 21:53:43,clear sky,35.64,55,4.54,0,0,0
947,Viedma,AR,-40.8135,-62.9967,2021-04-17 21:50:42,overcast clouds,64.58,73,13.11,100,0,0
948,Listvyanka,RU,51.8535,104.8693,2021-04-17 21:53:44,broken clouds,26.6,93,11.18,75,0,0
949,Linxia Chengguanzhen,CN,35.6003,103.2064,2021-04-17 21:53:44,broken clouds,43.66,44,0.94,80,0,0
950,Chapeltown,GB,53.4651,-1.4722,2021-04-17 21:53:45,broken clouds,42.8,61,5.75,56,0,0
951,Kifrī,IQ,34.6959,44.9661,2021-04-17 21:53:45,clear sky,71.89,30,8.97,0,0,0
952,Egvekinot,RU,66.3167,-179.1667,2021-04-17 21:53:45,light snow,27.77,97,14.99,100,0,0
953,Oranjestad,AW,12.524,-70.027,2021-04-17 21:53:46,few clouds,84.2,70,27.63,20,0,0
954,Borodino,RU,55.9106,94.8983,2021-04-17 21:53:46,clear sky,15.98,90,4.41,10,0,0
955,Kui Buri,TH,12.0828,99.8543,2021-04-17 21:53:47,light rain,84.0,66,4.72,78,0,0
956,Imbituba,BR,-28.24,-48.6703,2021-04-17 21:53:47,light rain,69.8,94,11.5,75,0,0
957,Ogdensburg,US,44.6942,-75.4863,2021-04-17 21:53:48,overcast clouds,51.8,54,5.75,90,0,0
958,Santoña,ES,43.4439,-3.4576,2021-04-17 21:53:48,clear sky,46.99,70,5.75,0,0,0
959,Kayerkan,RU,69.3497,87.7602,2021-04-17 21:53:48,broken clouds,-25.28,99,2.71,53,0,0
960,Homer,US,59.6425,-151.5483,2021-04-17 21:49:59,clear sky,50.0,46,8.05,1,0,0
961,Point Pedro,LK,9.8167,80.2333,2021-04-17 21:53:49,broken clouds,80.96,84,9.57,70,0,0
962,Altamira,BR,-3.2033,-52.2064,2021-04-17 21:53:50,broken clouds,78.8,100,2.3,75,0,0
963,Anguillara Sabazia,IT,42.0875,12.2767,2021-04-17 21:53:50,overcast clouds,51.01,57,5.01,100,0,0
964,Coahuayana Viejo,MX,18.7333,-103.6833,2021-04-17 21:53:51,clear sky,84.2,28,11.5,1,0,0
965,Placer,US,39.0666,-120.7677,2021-04-17 21:53:51,clear sky,75.0,19,1.99,0,0,0
966,Shache,CN,38.4167,77.2406,2021-04-17 21:53:51,overcast clouds,57.45,41,1.66,96,0,0
967,Puerto Madero,MX,14.7208,-92.4215,2021-04-17 21:53:52,scattered clouds,91.4,58,16.11,40,0,0
968,Nouakchott,MR,18.0858,-15.9785,2021-04-17 21:48:53,clear sky,73.4,68,17.27,0,0,0
969,Verkhnevilyuysk,RU,63.4453,120.3167,2021-04-17 21:53:52,overcast clouds,11.26,87,13.22,100,0,0
970,Sarakhs,IR,36.5449,61.1577,2021-04-17 21:53:53,clear sky,59.0,63,2.3,0,0,0
971,Denpasar,ID,-8.65,115.2167,2021-04-17 21:53:53,few clouds,78.8,94,3.44,20,0,0
972,Kawalu,ID,-7.3817,108.2082,2021-04-17 21:53:54,broken clouds,70.05,93,2.08,72,0,0
973,Poya,NC,-21.35,165.15,2021-04-17 21:53:54,clear sky,77.88,73,5.17,8,0,0
974,Takaka,NZ,-40.85,172.8,2021-04-17 21:53:55,few clouds,59.0,69,5.01,11,0,0
975,Portland,US,45.5234,-122.6762,2021-04-17 21:49:29,clear sky,82.99,22,5.75,1,0,0
976,Arica,CL,-18.475,-70.3042,2021-04-17 21:49:32,clear sky,69.8,68,11.5,0,0,0
977,Ozernovskiy,RU,51.5,156.5167,2021-04-17 21:53:55,overcast clouds,37.11,64,0.81,100,0,0
978,Athabasca,CA,54.7169,-113.2854,2021-04-17 21:53:56,overcast clouds,62.6,25,8.05,100,0,0
979,Strezhevoy,RU,60.7333,77.5889,2021-04-17 21:53:56,clear sky,12.2,73,11.18,0,0,0
980,Redmond,US,47.674,-122.1215,2021-04-17 21:52:18,clear sky,79.0,30,1.01,0,0,0
981,Chibuto,MZ,-24.6867,33.5306,2021-04-17 21:53:57,scattered clouds,59.92,71,2.64,31,0,0
982,Gizo Government Station,SB,-8.103,156.8419,2021-04-17 21:53:57,overcast clouds,83.34,73,4.05,100,0,0
983,Poso,ID,-1.3959,120.7524,2021-04-17 21:49:20,overcast clouds,79.0,79,4.18,89,0,0
984,Akdepe,TM,42.0551,59.3788,2021-04-17 21:53:58,clear sky,60.8,44,2.3,0,0,0
985,Maisach,DE,48.2167,11.2667,2021-04-17 21:53:59,light rain,39.99,81,5.75,90,0,0
986,Ben Gardane,TN,33.1378,11.2197,2021-04-17 21:54:00,broken clouds,60.51,69,14.0,79,0,0
987,Nísia Floresta,BR,-6.0911,-35.2086,2021-04-17 21:54:00,moderate rain,77.0,88,4.61,75,0,0
988,Diplo,PK,24.4667,69.584,2021-04-17 21:54:01,clear sky,80.91,40,10.63,8,0,0
989,Lufilufi,WS,-13.8745,-171.5986,2021-04-17 21:54:01,light rain,87.8,70,4.61,20,0,0
990,Sørland,NO,67.667,12.6934,2021-04-17 21:54:01,scattered clouds,41.76,73,12.41,37,0,0
991,Antofagasta,CL,-23.65,-70.4,2021-04-17 21:50:02,few clouds,64.4,72,12.66,20,0,0
992,Djibouti,DJ,11.5,42.5,2021-04-17 21:54:02,clear sky,82.4,74,8.05,1,0,0
993,Amga,RU,60.8953,131.9608,2021-04-17 21:54:02,light snow,26.26,88,4.16,100,0,0
994,Alice Springs,AU,-23.7,133.8833,2021-04-17 21:53:21,clear sky,44.6,81,5.75,0,0,0
995,Willowmore,ZA,-33.2926,23.4895,2021-04-17 21:54:03,scattered clouds,63.73,25,2.71,32,0,0
996,Inndyr,NO,67.0338,14.0276,2021-04-17 21:54:04,clear sky,37.99,75,5.75,0,0,0
997,Anzio,IT,41.4853,12.6179,2021-04-17 21:54:04,overcast clouds,52.0,80,1.99,100,0,0
998,Baruun-Urt,MN,46.6806,113.2792,2021-04-17 21:54:04,clear sky,40.87,27,12.64,0,0,0
999,Villazón,BO,-22.0866,-65.5942,2021-04-17 21:54:05,clear sky,58.89,33,11.77,8,0,0
1000,Lamar,US,33.6668,-95.5836,2021-04-17 21:54:05,overcast clouds,57.0,62,12.66,90,0,0
1001,Conakry,GN,9.538,-13.6773,2021-04-17 21:54:06,few clouds,80.6,89,4.61,20,0,0
1002,Ust'-Kut,RU,56.7938,105.7672,2021-04-17 21:54:06,few clouds,14.07,96,2.84,24,0,0
1003,Kuliyapitiya,LK,7.4688,80.0401,2021-04-17 21:54:07,scattered clouds,80.6,89,4.61,40,0,0
1004,Ibrā’,OM,22.6906,58.5334,2021-04-17 21:53:18,broken clouds,76.57,41,4.25,79,0,0
1005,Berezovyy,RU,51.6667,135.7,2021-04-17 21:54:07,broken clouds,37.31,86,2.62,60,0,0
1006,Menongue,AO,-14.6585,17.691,2021-04-17 21:54:08,few clouds,61.86,64,5.79,19,0,0
1007,Kjøllefjord,NO,70.9457,27.3465,2021-04-17 21:54:08,clear sky,35.58,83,11.5,4,0,0
1008,Saint-Raphaël,HT,19.4333,-72.2,2021-04-17 21:54:08,clear sky,81.37,52,7.38,0,0,0
1009,Synya,RU,65.3718,58.0387,2021-04-17 21:54:09,scattered clouds,14.34,88,7.61,40,0,0
1010,Malumfashi,NG,11.7853,7.6218,2021-04-17 21:54:09,overcast clouds,84.06,9,2.82,98,0,0
1011,Sterling,US,39.0062,-77.4286,2021-04-17 21:50:14,broken clouds,59.0,44,10.36,75,0,0
1012,Black River,JM,18.0264,-77.8487,2021-04-17 21:54:10,scattered clouds,84.2,74,18.41,40,0,0
1013,Flin Flon,CA,54.7682,-101.865,2021-04-17 21:54:10,overcast clouds,48.2,46,16.11,90,0,0
1014,Firminópolis,BR,-16.5819,-50.305,2021-04-17 21:54:11,few clouds,72.0,74,3.96,22,0,0
1015,Strunga,RO,47.1667,26.9833,2021-04-17 21:54:11,overcast clouds,46.0,73,4.0,94,0,0
1016,Lucapa,AO,-8.4192,20.7447,2021-04-17 21:54:12,broken clouds,64.65,94,3.91,62,0,0
1017,Santo Antônio,BR,-6.3106,-35.4789,2021-04-17 21:54:12,moderate rain,77.0,88,4.61,75,0,0
1018,Boo,SE,59.3333,18.2833,2021-04-17 21:54:13,overcast clouds,44.6,49,4.61,95,0,0
1019,Galveston,US,29.3669,-94.9669,2021-04-17 21:54:13,overcast clouds,64.0,72,18.41,90,0,0
1020,Kolokani,ML,13.5728,-8.0339,2021-04-17 21:54:13,overcast clouds,81.93,52,8.93,86,0,0
1021,Roebourne,AU,-20.7833,117.1333,2021-04-17 21:54:14,clear sky,80.4,45,7.49,0,0,0
1022,Batangafo,CF,7.3008,18.2833,2021-04-17 21:54:14,overcast clouds,81.36,43,4.16,96,0,0
